permit_number,s_name,s_address,city,z_code,p_fee,c_number,contractor,permit_specifications,square_feet,is_the_building_occupied,i_date,e_date,achd_inspector,job_complete,is_permit_date_extended,permit_o_e_date,project_type,latitude,longitude
DEM190108,VACANT RESIDENTIAL,4234  3RD ST,MCKEESPORT,15132,0,0,0,DEMOLITION AND SITE CLEARANCE SEEK AND STRAW,1200,f,2019-04-18,2019-12-31,3,f,f,2019-12-31,DEMOLITION,40.321012,-79.8381872
DEM190112,VACANT RESIDENCE,232 E 14TH AVE,HOMESTEAD,15120,0,0,915,RAZE TWO STORY FRAME DWELLING HAUL AWAY ALL TRASH AND DEBRIS VOID WILL BE CLEANED OUT AND BACK FILLED WITH CLEAN MATERIAL LEVEL THE LOT WITH CONTOUR OF STREET SEED AND STRAW LOT,1500,f,2019-04-28,2019-12-31,2,f,f,2019-12-31,DEMOLITION,40.4037671,-79.9051888
DEM190146,VACANT RESIDENCE,2427 S BRADDOCK AVE,SWISSVALE,15218,0,0,0,DEMOLISH STRUCTURE AND GRADE LOT,840,f,2019-05-13,2019-12-31,3,f,f,2019-12-31,DEMOLITION,40.4179969,-79.8797879
DEM190147,VACANT RESIDENCE,2111  HUDSON ST,SWISSVALE,15218,0,0,0,DEMOLISH STRUCTURE AND GRADE LOT,1069,f,2019-05-23,2019-12-31,3,f,f,2019-12-31,DEMOLITION,40.427734,-79.879834
DEM190148,VACANT RESIDENCE,2337 S BRADDOCK AVE,SWISSVALE,15218,0,0,0,DEMOLISH STRUCTURE AND GRADE LOT,2220,f,2019-05-23,2019-12-31,3,f,f,2019-12-31,DEMOLITION,40.4187064,-79.8809338
DEM190149,VACANT RESIDENCE,2611 S BRADDOCK AVE,SWISSVALE,15218,0,0,0,DEMOLISH STRUCTURE AND GRADE LOT,1232,f,2019-05-23,2019-12-31,3,f,f,2019-12-31,DEMOLITION,40.4148414,-79.8765179
DEM190150,VACANT RESIDENCE,7430  DUQUESNE AVE,SWISSVALE,15218,0,0,0,DEMOLISH STRUCTURE AND GRADE LOT,2046,f,2019-05-23,2019-12-31,3,f,f,2019-12-31,DEMOLITION,40.4186307,-79.8867525
DEM190151,VACANT RESIDENCE,2432 S BRADDOCK AVE,SWISSVALE,15218,0,0,0,DEMOLISH STRUCTURE AND GRADE LOT,2400,f,2019-05-23,2019-12-31,3,f,f,2019-12-31,DEMOLITION,40.4173248,-79.8798499
DEM190154,VACANT RESIDENCE,2329 S BRADDOCK AVE,SWISSVALE,15218,0,0,921,REMOVE 1ST FLOOR KITCHEN VINYL FLOORING & EXTERIOR WINDOW AND DOOR CAULKING,150,f,2019-06-06,2020-06-05,3,f,f,2020-06-05,DEMOLITION,40.4188414,-79.8811635
DEM190155,VACANT RESIDENCE,2200  LEHIGH ST,SWISSVALE,15218,0,0,921,REMOVE WINDOW AND DOOR CAULKING,100,f,2019-06-06,2020-06-05,3,f,f,2020-06-05,DEMOLITION,40.4278933,-79.8787591
DEM190234,VACANT STORAGE FACILITY - 84 SYCAMORE STREET,,ETNA,15223,0,0,0,COMPLETE DEMOLITION OF BUILDING,15000,f,2019-09-02,2019-12-31,2,f,t,2019-11-05,DEMOLITION,40.5029699,-79.9500477
DEM190235,VACANT COMMERCIAL BUILDING,512  OHIO RIVER BLVD,AVALON,15202,0,0,937,REMOVE LIGHT GREY TRANSITE PIPE FLUE COLLAR AND GRY CAULKING ON WINDOWS,65,f,2019-08-09,2020-08-01,8,f,f,2020-08-01,DEMOLITION,40.4993501,-80.0725547
DEM190243,NIOSH BUILDING #35 - 626 COCHRAN MILLS ROAD,,PITTSBURGH,15236,0,0,925,REMOVE FROM ROOM 100 WINDOW GLAZING AND TRANSITE PANESL INSIDE FUME HOOD,58,f,2019-09-26,2020-01-16,2,f,f,2020-01-16,DEMOLITION,40.3380768,-79.9789606
DEM190244,VACANT RESIDENCE,214  BLOOMER WAY,PITTSBURGH,15219,0,0,0,NO ACM IDENTIFIED,2000,f,2019-08-14,2020-08-13,2,f,f,2020-08-13,DEMOLITION,40.4477757,-79.9776706
DEM190245,NISOSH BUILDING #104 - 626 COCHRAN MILLS ROAD,,PITTSBURGH,15236,0,0,925,REMOVEAL OF DETERIORATED STRUCTURE,60,f,2019-11-18,2019-12-05,2,f,f,2019-12-05,DEMOLITION,40.3380768,-79.9789606
DEM190246,NIOSH BUILDING 115 - 626 COCHRANS HILLS ROAD,,PITTSBURGH,15236,0,0,925,REMOVE GASKET MATERIAL FROM ROOM 100 & WINDOW GLAZING THROUGHOUT BUILDING,9,f,2019-09-24,2020-01-13,2,f,f,2020-01-13,DEMOLITION,40.3380768,-79.9789606
DEM190248,NIOSH BUILDING 149 - 626 COCHRANS MILL ROAD,,PITTSBURGH,15236,0,0,925,REMOV WINDOW GLAZING THROUGHOUT BUILDING,96,f,2019-09-20,2019-12-16,2,f,f,2019-12-16,DEMOLITION,40.3380768,-79.9789606
DEM190259,VACANT RESIDENCE,5323  ROSETTA ST,PITTSBURGH,15224,0,0,951,STRUCTUR TO BE RAZED BY MEANS OF HAND WORK AND EXCAVATOR,0,f,2019-09-25,2019-11-18,3,f,f,2019-11-18,DEMOLITION,40.4674742,-79.936909
DEM190270,VACANT RESIDENCE,87  TRANSVAAL AVE,ROSS,15212,0,0,956,REMOVE DUCT PAPER FROM BARROOM,100,f,2019-10-07,2019-12-07,2,f,f,2019-12-07,DEMOLITION,40.493553,-80.0334934
DEM190271,BETTIS ATOMIC POWER LABORATORY,814 PITTSBURGH MCKEESPORT BLVD,WEST MIFFLIN,15122,0,0,0,PARTIAL DEMOLITION OF A 20'X20' PORTION OF EXISTING BUILDING,20,f,2019-09-23,2020-09-23,2,f,f,2020-09-23,DEMOLITION,40.3560891,-79.8997901
DEM190272,FORMER TAO'S AUTO SERVICE,9235  PERRY HWY,PITTSBURGH,15237,0,0,902,REMOVE INTERIOR WINDOW GLAZING IN GARAGE BAY & FLOOR TILE & MASTIC IN REAR OFFICE,102,f,2019-10-09,2019-12-31,2,f,f,2019-12-31,DEMOLITION,40.5744244,-80.0375337
DEM190274,VACANT COMMERCIAL,6540  LIBRARY RD,SOUTH PARK,15129,0,0,920,NO ACM IDENTIFIED - DEMOLISH STRUCTURE AND GRADE LOT,1200,f,2019-10-18,2019-11-18,2,f,f,2019-11-18,DEMOLITION,40.2867262,-80.0238231
DEM190275,VACANT RETAIL STRUCTURE,6544  LIBRARY RD,SOUTH PARK,15129,0,0,920,NO ACM IDENTIFIED - DEMOLISH BUILDING AND GRADE LOT,1200,f,2019-10-18,2019-11-18,2,f,f,2019-11-18,DEMOLITION,40.2866792,-80.023723
DEM190276,VACANT RESIDENTIAL,711 S NEGLEY AVE,PITTSBURGH,15232,0,0,912,REMOVE FLOOR TILE IN REAR ENTRYWAY ON FIRST FLOOR,36,f,2019-10-21,2019-12-30,2,f,f,2019-12-30,DEMOLITION,40.453136,-79.931325
DEM190277,VACANT RETAIL,6560  LIBRARY RD,SOUTH PARK,15129,0,0,920,REMOVE EXTERIOR MULTI-PANE WINDOW CAULKING & GLAZING AND EXTERIOR ROOF FLASHING FROM SIDE WALL OVERHANG,30,f,2019-10-18,2019-11-26,2,f,f,2019-11-26,DEMOLITION,40.2865383,-80.0234874
DEM190279,VACANT RESIDENCE,6094  BUTLER ST,PITTSBURGH,15201,0,0,961,BUILDING SHALL BE DEMOLISHED HORIZONTALLY BY REMOVING SMALL SECTIONS OF STRUCTURE WITH GRAPPLE AND LOWEREED TO GROUND THEN LOADED INTO TARPED TRUCKS.  ABATEMENT SUPERVISOR ON SITE DURING DEMOLITION.  WATER TO BE USED FOR DUST SUPPRESSION,0,f,2019-10-22,2019-11-30,2,f,f,2019-11-30,DEMOLITION,40.4875834,-79.9390976
DEM190281,VACANT RESIDENCE - 121 ENTERPRISE STREET,,PITTSBURGH,15221,0,0,961,BUILDING SHALL BE DEMOLISHED HORZONTALLY BY REMOVING SMALL SECTIONS OF STRUCTURE WITH GRAPPLE AND LOWERED TO GROUND THEN LOADED INTO TARPED TRUCKS AND SECURED.  WATER SHALL BE USED TO PREVENT FUGITIVE EMISSIONS,0,f,2019-10-22,2019-11-30,2,f,f,2019-11-30,DEMOLITION,40.4368825,-79.8576828
DEM190284,VACANT RESIDENCE,3721  BUTLER ST,PITTSBURGH,15201,0,0,961,BUILDING SHALL BE DEMOLISHED HORZONTALLY BY REMOVING SMALL SECTIONS OF STRUCTURE WITH GRAPPLE AND LOWERED TO GROUND THEN LOADED INTO TARPED TRUCKS AND SECURED.  WATER SHALL BE USED TO PREVENT FUGITIVE EMISSIONS,0,f,2019-10-21,2019-11-20,2,f,f,2019-11-20,DEMOLITION,40.466926,-79.964558
DEM190321,VACANT RESIDENCE,132  BURROWS ST,PITTSBURGH,15213,0,0,935,REMOVE ROOF TAR FROM REAR WALL PARAPET,45,f,2019-11-01,2019-11-30,2,f,f,2019-11-30,DEMOLITION,40.4391502,-79.9667216
DEM190322,VACANT RESIDENCE,114  BURROWS ST,PITTSBURGH,15213,0,0,935,REMOVE MAIN ROOF BLACK-GREEN FLASHING AND OFF WHITE INSULATION PAPER FROM BASEMENT DUCT,73,f,2019-11-01,2019-11-30,2,f,f,2019-11-30,DEMOLITION,40.4396237,-79.9668418
DEM190324,VACANT RESIDENCE,2330  PENN AVE,PITTSBURGH,15222,0,0,956,TOTAL DEMOLITION,500,f,2019-11-20,2019-12-31,2,f,f,2019-12-31,DEMOLITION,40.453133,-79.980585
DEM190325,VACANT RESIDENCE,827  LONG ST,MILLVALE,15209,0,0,0,REMOVE WINDOW CAULKING,10,f,2019-11-11,2019-11-25,2,f,f,2019-11-25,DEMOLITION,40.489305,-79.973629
DEM192080,VACANT RESIDENCE,100  BROSVILLE ST,PITTSBURGH,15203,0,0,961,BUILDING SHALL BE DEMOLISHED HORZONTALLY BY REMOVING SMALL SECTIONS OF STRUCTURE WITH GRAPPLE AND LOWERED TO GROUND THEN LOADED INTO TARPED TRUCKS AND SECURED.  WATER SHALL BE USED TO PREVENT FUGITIVE EMISSIONS,0,f,2019-10-22,2019-11-30,2,f,f,2019-11-30,DEMOLITION,40.4247621,-79.9855402
DME190145,VACANT RESIDENCE,2435 S BRADDOCK AVE,SWISSVALE,15218,0,0,0,DEMOLISH STRUCTURE AND GRADE LOT,1560,f,2019-05-13,2019-12-31,3,f,f,2019-12-31,DEMOLITION,40.417821,-79.879423
PAA180272,WOODLAND HILLS DICKSON FIELD HOUSE/FALLOUT SHELTER,7301 SCHOYER AVE,SWISSVALE,15218,850,013125,321,REMOVE PLASTER & WINDOW GLAZING FROM FIELD HOUSE/FALLOUT SHELTER AND OUTSIDE DOOR CAULKING.,2300,f,2018-04-24,2108-08-24,2,t,f,2108-08-24,DEMOLITION,40.4234595,-79.8935994
PAA180650,KOPPERS PLANT CLAIRTON PA - AREA 13,300 N STATE ST,CLAIRTON,15025,850,20688,412,"REMOVE EXTERIOR TANK IN MAP AREA 13 TANKS 32, 31 & 33",15700,f,2018-11-20,2019-11-20,2,t,f,2019-11-20,DEMOLITION,40.3080967,-79.884895
PAA180651,KOPPERS PLANT CLAIRTON PA - AREA 19,300 N STATE ST,CLAIRTON,15025,850,20688,412,REMOVE EXTERIOR ROOFING IN MAPE ARE 19 TRANSFER PUMP HOUSE & PIPE INSULATION IN MAP AREA 19 ON TOP OF BUILDING,1625,f,2018-11-20,2019-11-20,2,t,f,2019-11-20,DEMOLITION,40.3080967,-79.884895
PAA180652,KOPPERS PLANT CLAIRTON PA - AREA 12,300 N STATE ST,CLAIRTON,15025,850,20688,412,REMOVE EXTERIOR ROOFING MATERIAL FROM MAP AREA 12 PIPE SHOP,3250,f,2018-11-20,2019-11-20,2,t,f,2019-11-20,DEMOLITION,40.3080967,-79.884895
PAA180653,KOPPERS PLANT CLAIRTON PA - AREA 9,300 N STATE ST,CLAIRTON,15025,450,20688,412,REMOVE EXTERIOR ROOFING MATERIAL FROM MAP ARE 9 SEWAGE STATION,250,f,2018-11-20,2019-11-20,2,t,f,2019-11-20,DEMOLITION,40.3080967,-79.884895
PAA180654,KOPPERS PLANT CLAIRTON PA AREA 4,300 N STATE ST,CLAIRTON,15025,850,20688,412,"REMOVE EXTERIOR GALBESTOS, TRANSITE & PIPE IN MAP AREA 4",4635,f,2018-11-20,2019-11-20,2,t,f,2019-11-20,DEMOLITION,40.3080967,-79.884895
PAA180655,KOPPERS PLANT CLAIRTON PA AREA 29,300 N STATE ST,CLAIRTON,15025,850,20688,412,"REMOVE PIPE FROM MAP AREA 29 GENERAL OFFICE BUILDING, EXTERIOR TRANSITE PIPE, FIRE PROOFING, GALBESTOS, EXTERIOR ROOFING MATERIAL & EXTERIOR WINDOW CAULKING FROM MAPE AREA 29",3772,f,2018-11-20,2019-11-20,2,t,f,2019-11-20,DEMOLITION,40.3080967,-79.884895
PAA180656,KOPPERS PLANT CLAIRTON PA EXTERNAL PIPE RACKS,300 N STATE ST,CLAIRTON,15025,850,20688,412,"REMOVE EXTERIOR PIPE RACKS IN MAP AREAS 2, 7, 19,15, 30",6600,f,2018-11-20,2019-11-20,2,t,f,2019-11-20,DEMOLITION,40.3080967,-79.884895
PAA180657,KOPPERS PLANT CLAIRTON PA - AREA 30,300 N STATE ST,CLAIRTON,15025,850,20688,412,REMOVE EXTERIOR GALBESTOS ROOFING AND ROOFING FROM MAP AREA 30 CONTAIINMENT BUILDING,23450,f,2018-11-20,2019-11-20,2,f,f,2019-11-20,DEMOLITION,40.3080967,-79.884895
PAA180664,FIREHOUSE #24,1729 MARY ST,PITTSBURGH,15203,200,20366,360,REMOVE FLOOR TILE AND MASTIC FROM STORAGE ROOM/OFFICE,174,t,2018-11-22,2019-11-22,2,t,f,2019-11-22,RENOVATION,40.4263687,-79.9812513
PAA180669,UOP OLD ENGINEERING HALL,3941  OHARA ST,PITTSBURGH,15213,450,4425,316,"REMOVE VAT/ASTIC, TRANSITE & PIPE INSULATION FROM ROOM 513",651,t,2018-11-27,2019-11-27,2,t,f,2019-11-27,RENOVATION,40.4450083,-79.9579922
PAA180670,ASCENSION LUTHERAN CHURCH,1290  SILVER LN,MCKEES ROCKS,15136,850,18753,310,REMOVE FLOOR TILE AND MASTIC FROM COMMUNITY ROOM,1032,t,2018-12-03,3018-12-31,2,t,f,3018-12-31,RENOVATION,40.47511,-80.1316319
PAA180678,VACANT RESIDENCE,923  GRAND AVE,PITTSBURGH,15212,200,7733,340,REMOVE 3 LAYER FLOOR TILE/SHEET FLOORING FROM KITCHEM AND ALL WINDOW CAULKING,260,f,2018-12-06,2019-12-05,2,t,f,2019-12-05,DEMOLITION,40.475205,-80.024377
PAA180679,VACANT RESIDENCE,2950  WEBSTER AVE,PITTSBURGH,15219,450,7750,340,SEE ATTACHED FOR THE LIST OF MATERIALS TO BE REMOVED,322,f,2018-12-06,2019-12-05,2,t,f,2019-12-05,DEMOLITION,40.4524307,-79.9655088
PAA180680,VACANT RESIDENCE,7319  SUSQUEHANNA ST,PITTSBURGH,15208,850,7736,340,DEMOLISH STRUCTURE AND GRADE LOT - ALL MATERIAL BEING TREATED AS ACM,1920,f,2018-12-06,2019-12-05,2,t,f,2019-12-05,DEMOLITION,40.4528063,-79.8956052
PAA180685,WEST PENN HOSPITAL - MELLON PAVILLION,4801  FRIENDSHIP AVE,PITTSBURGH,15224,850,4428,316,REMOVE VAT/MASTIC FROM SUITE M54,5000,t,2018-12-03,2019-12-03,2,t,f,2019-12-03,RENOVATION,40.4630069,-79.9465836
PAA180686,APARTMENT #2,147 N CRAIG ST,PITTSBURGH,15213,450,4384,326,REMOVE FLOOR TILE & ENCAPSULATE MASTIC,1250,t,2018-12-12,2019-12-11,2,t,f,2019-12-11,RENOVATION,40.4487079,-79.9505285
PAA180692,FORMER BALLY'S FITNESS CENTER,119  6TH ST,PITTSBURGH,15222,850,20477,931,REMOVE PIPE INSULATION THROUGHOUT BUILDING & MIRROR GLUE DOTS FROM BASEMENT,3019,f,2019-01-07,2019-12-17,2,t,f,2019-12-17,RENOVATION,40.4435689,-80.001844
PAA180697,VACANT APARTMENT BUILDING,708  CHARTIERS AVE,MCKEES ROCKS,15136,850,1422,466,REMOVE ROOFING MATERIAL AND ALL EXTERIOR WINDOW CAULKING,10500,f,2018-12-06,2019-11-29,2,t,f,2019-11-29,DEMOLITION,40.4657904,-80.0617434
PAA180702,VACANT COMMERCIAL STRUCTURE,810  MONONGAHELA AVE,GLASSPORT,15045,850,77408,921,REMOVE MASTIC THROUGHOUT BUILDING & VAT/MASTIC FROM DEBRIS PILE OUTSIDE OF BUILDING,16000,f,2019-01-07,2019-12-19,8,t,f,2019-12-19,RENOVATION,40.3222667,-79.8927028
PAA180703,ARROTT BUILDING,411  WOOD ST,PITTSBURGH,15222,850,20907,412,"REMOVE WAL MASTIC FROM 9TH FL, PIPE INSULATION IN VERTICLE CHASE THROUGHOUT BLDG, FLOOR TILS/SHEET FLOORTING THORUGHUHOUT BLDG ALL FLOORS, FLOOR MASTIC THROUGHOUT BLDG, TANK INSULATION AND TRANSITE IN SUB-BASEMENT, & SINK MASTIC ON 2ND FL",74078,f,2018-12-20,2109-12-01,2,f,f,2019-12-01,RENOVATION,40.4398222,-80.0012066
PAA180705,DITHRIDGE TOWERS,144 N DITHRIDGE ST,PITTSBURGH,15213,850,18823,902,REMOVE ROOFING,774,t,2018-12-21,2019-12-09,2,t,f,2019-03-10,RENOVATION,40.4482339,-79.950786
PAA180715,CHARTIERS VALLEY MIDDLE SCHOOL,50 THOMS RUN RD,BRIDGEVILLE,15017,850,2015,360,"REMOVE FLOOR TILE & MASTIC & TRANSITE PANELS THROUGHOUT MIDDLE SCHOOL, ROOF FLASHING TAR, ROOF FELT AND INTERIOR WINDOW GLAZE",19900,t,2018-12-26,2019-12-25,8,t,f,2019-12-25,DEMOLITION,40.3792417,-80.1030421
PAA180716,COMMERCIAL BUILDING,18 WESTERN AVE,PITTSBURGH,15202,200,USPSMO21974562797,335,"REMOVE 12X12 VAT & MASTIC FROM 1ST FLOOR HALLWAY & 9"" VAT FROM 3RD FLOOR SIDE ROOM",225,f,2018-12-24,2019-12-24,2,t,f,2019-12-24,DEMOLITION,40.5061385,-80.0877355
PAA180721,ANTONIAN HALL - CARLOW UNIVERSITY,3333  5TH AVE,PITTSBURGH,15213,850,4439,316,"REMOVE VAT/MASTIC FROM ROOMS 410, 511, 513",2190,f,2018-12-27,2019-12-27,2,t,f,2019-12-27,RENOVATION,40.4389338,-79.9631161
PAA180725,UPMC MERCY HOSPITAL,1400 LOCUST ST,PITTSBURGH,15219,850,4385,326,"REMOVE FLOOR TILE & MASTIC FROM 2ND FL EGRESS CORRIDOR, CONFERENCE RM, ON-CALL & CLINICIANS OFFICE, DEPARTMENT CORRIDOR, OFFICES 2030 & 2031.",1667,t,2018-12-26,2019-12-25,2,f,f,2019-12-25,RENOVATION,40.4362085,-79.9856207
PAA180730,USS CLAIRTON WORKS EMERG NOTIF/#2 CONTROL RM,400 STATE ST,CLAIRTON,15025,850,29239,946,"REMOVE PIPE COVERING, GASKETS, SHEETING, WIRING, TSI & MISCELLANEOUS MATERIAL DUE TO FIRE DAMAGE IN CONTROL ROOM #2",25000,t,2018-12-27,2019-12-26,8,f,f,2019-12-26,RENOVATION,40.2940921,-79.8728393
PAA190011,UMC ST MARGARET'S HOSPITAL,815 FREEPORT RD,PITTSBURGH,15215,85,04386,326,REMOVE BLACK MASTIC FRM ROOM 1425/1ST FL/CENTRAL STORAGE,1450,t,2019-01-10,2019-12-30,2,t,f,2019-12-30,RENOVATION,40.4891376,-79.8961109
PAA190022,US STEEL IRVIN WORKS/GALVANIZING  DEPT - PO BOX 878,,DRAVOSBURG,15034,200,29102,946,REMOVE TSI PIPING FROM GALVANIZING DEPARTMENT,295,t,2019-01-07,2019-12-31,2,f,t,2019-01-18,RENOVATION,40.351279,-79.8884819
PAA190036,US COURTHOUSE,700 GRANT ST,PITTSBURGH,15219,850,1354,901,REMOVE 1 X 1 CEILING TILE FROM COURTROOMS 9A & 9B,3000,t,2019-01-15,2019-12-31,2,t,f,2019-12-31,RENOVATION,40.4427412,-79.9936597
PAA190043,WESTINGHOUSE CHURCHILL CORP CAMPUS - 1333 BEULAH ROAD,,PITTSBURGH,15235,850,6581,938,"REMOVE ALL MASTIC, CARPET, FLOORING, LAB TOPS HOODS, DUCT COATING, FLEX DUCT, TSI FITTINGS ON 2ND FLOOR, WET WIPE ENTIRE 2ND FLOOR AREA AND DUCT COATING ON 1ST, 2ND & 3RD FOOR PIPE CHASE",76310,f,2019-01-21,2020-01-21,2,t,f,2020-01-21,RENOVATION,40.4586216,-79.8184684
PAA190049,FORMER BABIES R US ROOF,3700  WILLIAM PENN HWY,MONROEVILLE,15146,850,21125,941,REMOVE GALBESTOS SHEETING FROM PARAPET & MECHANICAL EQUIPMENT SCREEN WALL,6160,t,2019-01-21,2019-12-30,2,t,f,2019-12-30,RENOVATION,40.4347614,-79.7892027
PAA190052,US STEEL CLAIRTON #1 WHARF NORTH BUILDING,400 STATE ST,CLAIRTON,15025,850,033605,904,REMOVE TRANSITE FROM WALLS AND ROOF,1200,f,2019-01-21,2020-01-20,2,t,f,2020-01-20,RENOVATION,40.2940921,-79.8728393
PAA190053,UPMC MERCY HOSPITAL,1400 LOCUST ST,PITTSBURGH,15219,200,4389,928,REMOVE FLOOR TILE & MASTIC IN CENTRAL SUPPLY OFFICE AND CENTRAL SUPPLY,570,t,2019-01-10,2019-12-28,2,t,f,2019-12-28,RENOVATION,40.4362085,-79.9856207
PAA190055,US STEEL CLAIRTON 01 STORAGE SHED ROOF,400 STATE ST,CLAIRTON,15025,850,033606,904,REMOVE GALBESTOS FROM ROOF,900,f,2019-01-19,2020-01-19,2,t,f,2020-01-19,RENOVATION,40.2940921,-79.8728393
PAA190061,UPMC MCKEESPORT 5TH FLOOR - CCU,1500 5TH AVE,MCKEESPORT,15132,850,1355,901,REMOVE 12 X 12 FLOOR TILE AND BLACK MASTIC IN THE 5TH FLOOR CCU,4820,f,2019-01-22,2019-12-30,2,t,f,2019-12-30,RENOVATION,40.3510349,-79.8490186
PAA190063,PITTSBURGH STUDENT ACHIEVEMENT CENTER,925 BRUSHTON AVE,PITTSBURGH,15208,1850,6736 & 6591,938,"REMOVE BULETIN/CHALK BOARDS & MASTIC FROM ROOMS 100, 105, 211, 320B, & 333, WALL & CEILING PLASTER FROM ROOMS 100, 115, 118, 119, 119A, 200, 200B, 211, 214B, & 220; AND CONTAMINATED CEILING TILE & TRACK FROM ROOM 118",13391,t,2019-05-21,2020-05-21,2,f,f,2020-05-21,RENOVATION,40.4563926,-79.8885784
PAA190065,ON PNC PLAZA A LEVEL UPS ROOM,225  5TH AVE,PITTSBURGH,15222,850,5273,940,REMOVE FLOOR TILE AND MASTIC,1000,t,2019-01-17,2019-12-28,2,f,f,2019-12-28,RENOVATION,40.4413691,-80.0013643
PAA190068,UNIVERSITY OF PITTSBURGH - OLD FORD BUILDING,5000  BAUM BLVD,PITTSBURGH,15213,850,1376,901,VARIOUS MATERIALS IN VARIOUS LOCATIONS THROUGHOUT BUILDING - SEE ATTACHED LIST,62225,f,2019-01-31,2020-01-31,8,f,f,2020-01-31,RENOVATION,40.4550425,-79.944171
PAA190087,MONTEFIORE HOSPITAL - SUITE 1111,3459 5TH AVE,PITTSBURGH,15213,450,5361,940,REMOVE FLOOR TILE AND MASTIC,750,t,2019-02-15,2019-12-30,2,f,f,2019-12-30,RENOVATION,40.4405925,-79.9617686
PAA190089,MANOR BUILDING,564  FORBES AVE,PITTSBURGH,15219,1850,013659,912,REMOVE VAT & MASTIC FROM 5TH & 6TH FLOORS,18000,t,2019-02-15,2019-12-30,2,t,f,2019-12-30,RENOVATION,40.4377045,-79.9951014
PAA190094,COMMONWEALTH BUILDING - 316 FOURTH AVENUE,,PITTSBURGH,15222,1850,4462 & 4464,905,"REMOVE VAT, PIPE & FITTINGS, & CEILING PLASTER FROM ALL FLOORS",227985,t,2019-02-14,2019-12-31,2,f,f,2019-12-31,RENOVATION,40.4475255,-79.9933976
PAA190097,UPMC MAAGEE HOSPITAL,300 HALKET ST,PITTSBURGH,15213,1250,5409 & 5410,940,REMOVE CC FLOOR TILE & FLOOR MASTIC FROM 2800 WING,4200,t,2019-02-20,2019-12-30,2,t,f,2019-12-30,RENOVATION,40.4368286,-79.960688
PAA190119,171ST AIR REFUELING WING- 300 TANKER ROAD,,CORAOPOLIS,15108,1850,1398,901,"REMOVE THERMAL PIPE INSULATION FROM BASEMENT & HANGAR 301; PIPE FITTINGS FROM HANGAR 301; ACM FLOOR TILE/MASTIC FROM ROOM 225; NON-ACM FLOOR TILE; ACM MASTIC FROM CORRIDOR, 2ND FLOOR & ACM FLOOR MASTIC FROM BASEMENT, 1ST & 2ND FLOOR",23732,t,2019-02-28,2020-02-25,8,t,f,2020-02-25,RENOVATION,40.5184013,-80.1667247
PAA190128,UOP COMMUNITY ENGAGEMENT CTR - 626 HOMEWOOD AVE,,PITTSBURGH,15208,1550,4469,905,REMOVE VAT/MASTIC FROM FRONT OF BUILDING; MASTIC & WALL ADHESIVE FROM FIRST FLOOR; TILE & MASTIC FROM REAR OF BUILDING; PIPING FROM BASEMENT & ROOF TAR,6750,t,2019-02-27,2020-02-02,2,f,f,2020-02-02,RENOVATION,40.4509149,-79.9024779
PAA190129,UOP THAW HALL-ROOM 201,3941  OHARA ST,PITTSBURGH,15213,450,4468,905,REMOVE VAT & MASTIC FROM ROOM 201 ON SECOND FLOOR,525,t,2019-02-25,2019-12-31,2,t,f,2019-12-31,RENOVATION,40.4450083,-79.9579922
PAA190130,USS CLAIRTON ELECTRICIANS SHIFT OFFICE ROOF,400 STATE ST,CLAIRTON,15025,1250,033969 & 033700,904,REMOVE GALVESTOS SHEETING FROM ROOF,4000,f,2019-03-04,2020-03-04,2,f,f,2020-03-04,RENOVATION,40.2940921,-79.8728393
PAA190134,CMU MOREWOOD GARDENS D-TONER,1060 MOREWOOD AVE,PITTSBURGH,15213,1550,1415,901,REMOVE PIPE INSULATION AND FITTINGS FROM 1ST THRU 7TH FLOOR BATHROOMS AND TILE MASTIC FROM 1ST THRU 7TH FLOOR DATA CLOSETS,7900,t,2019-03-11,2019-12-31,2,t,f,2019-12-31,RENOVATION,40.4454444,-79.9432431
PAA190135,CITY COUNTY BUILDING - 4TH FLOOR,414 GRANT ST,PITTSBURGH,15219,1250,16951 & 17180,931,"REMOVE FLOOR TILE AND MASTIC FROM ROOMS 406A, 406, 407, 408, 409, 409A, 409B, 409C, & 409D",2310,t,2019-03-07,2020-03-07,2,t,f,2020-03-07,RENOVATION,40.4382355,-79.9966742
PAA190140,HERITAGE VALLEY SEWICKLEY HOSP. - LVL 2 MECH ROOM,720  BLACKBURN RD,SEWICKLEY,15143,450,407392,929,REMOVE ASBESTOS STEAM PIPE & INSULATION 10' STEAM LINE IN THE LEVEL 02 MECHANICAL ROOM BEHIND THE ENGINEERING OFFICES,1884,t,2019-03-12,2019-12-31,2,f,t,2019-03-31,RENOVATION,40.542729,-80.1780136
PAA190144,FOX CHAPEL PLAZA,1123 FREEPORT RD,PITTSBURGH,15238,850,4477,905,REMOVE FLOOR TILE & MASTIC THROUGHOUT STORE,1900,f,2019-03-13,2019-12-31,2,t,f,2019-12-31,RENOVATION,40.4882937,-79.8818081
PAA190154,MERCY HOSPITAL,1400 LOCUST ST,PITTSBURGH,15219,1250,5508,940,"REMOVE FLOOR TILE, MASTIC AND SHEET FLOORING FROM 2ND FLOOR PHARMACY AREA",5160,t,2019-03-21,2019-12-30,2,f,f,2019-12-30,RENOVATION,40.4362085,-79.9856207
PAA190157,STEPHEN FOSTER MEMORIAL BUILDING - 4301 FORBES AVE,,PITTSBURGH,15213,450,4479,905,"REMOVE FLOOR TILE, MASTIC & CEILING PLASTER FROM BASMENT/THEATRE AREA",614,t,2019-03-18,2019-12-31,2,t,f,2019-12-31,RENOVATION,40.4379259,-79.9556424
PAA190158,BRIGHTON HEIGHTS SENIOR CARE CENTER,3515  MCCLURE AVE,PITTSBURGH,15212,1550,1931,931,REMOVE FLOOR TILE & MASTIC THROUGHOUT 1ST & 2ND FLOORS; PIPE INSULATION ON 2ND FLOOR & EXTERIOR WINDOW CAULKING,9550,t,2019-03-21,2020-03-21,2,f,f,2020-03-21,RENOVATION,40.4791494,-80.0358962
PAA190163,OFFICE BUILDING,209  9TH ST,PITTSBURGH,15222,1850,1428,901,VARIOUS MATERIALS IN VARIOUS LOCATIONS - SEE ATTACHED,25494,f,2019-03-25,2019-12-31,2,f,f,2019-12-31,RENOVATION,40.443487,-79.997933
PAA190164,UNITED STATES POST OFFICE - WEXFORD,10675  PERRY HWY,BRADFORD WOODS,15090,450,11583,902,REMOVE FLOOR TILE & MASTIC FROM FULL/SELF SERVICE RENOVATION AREA,685,t,2019-03-26,2020-03-26,2,t,t,2019-06-30,RENOVATION,40.613743,-80.0560245
PAA190167,PITTSBURGH CAREER INSTITUTE,421  7TH AVE,PITTSBURGH,15219,1850,1434,901,REMOVE FLOOR TILE AND AMSTIC ON FLOORS 1 THRU 5 AND CEILING GLUE DOTS ON FLOORS 4 THRU 6,58135,t,2019-03-27,2020-03-27,2,f,f,2020-03-27,RENOVATION,40.4427382,-79.9958878
PAA190181,WQED TOWER SITE,3801  UNIVERSITY C DR,PITTSBURGH,15213,200,4485,905,REMOVE VAT FROM FIRST FLOOR,270,t,2019-04-02,2019-12-31,2,t,f,2019-12-31,RENOVATION,40.4453142,-79.9616719
PAA190184,BETTIS ATOMIC POWER LABORATORY - AT BUILDING,814 PITTSBURGH MCKEESPORT BLVD,WEST MIFFLIN,15122,1850,2023284,940,"REMOVE FLOOR TILE THROUGHOUT 1ST/2ND FL & STAIRWELLS; EXT CAULKING, INT/EXT GLAZING & EXT LINTEL CAULKING FROM 1ST/2ND FL WINDOWS; RESIDUAL CAULKING FROM EXT NORTH/WEST/SOUTH WALLS; PIPE FITTING INS FROM W. STAIRWELL/EXTENSION; & WEST CANOPY ROOF CAULKING",37446,t,2019-04-11,2020-04-10,2,f,f,2020-04-10,RENOVATION,40.3560891,-79.8997901
PAA190188,ARBOR VILLAGE,200 JHF DR,PITTSBURGH,15217,1550,21907,941,REMOVE FLOOR TILE & MASTIC FROM 4TH FLOOR ARBOR UNIT MULTIPLE AREASE,12540,f,2019-04-09,2019-12-30,2,t,f,2019-12-30,RENOVATION,40.4137475,-79.9198823
PAA190190,MIDTOWN TOWER,643  LIBERTY AVE,PITTSBURGH,15222,1250,17173,931,REMOVE PIPE INSULATION FROM FLOORS 2 THRU 16 AT COLUMNS B2 & B6,2198,f,2019-04-10,2020-04-10,2,t,f,2020-04-10,RENOVATION,40.4426381,-80.0001691
PAA190194,PITTSBURGH MINADEO PRE K-5,6502 LILAC ST,PITTSBURGH,15217,850,7514,921,MULTIPLE MATERIALS IN MULTIPLE AREAS - SEE ATTACHED,1041,t,2019-04-16,2020-04-15,2,f,f,2020-04-15,RENOVATION,40.4238559,-79.925479
PAA190195,WOODLAND HILLS HIGH SCHOOL - 2550 GREENSBURG PIKE,,PITTSBURGH,15218,450,47530,903,REMOVE PIPE FITTING INSULATION FROM 1ST2ND FLOOR LOCKER ROOMS AND 2ND FLOOR STORAGE ROOMS; CEILING PLASTER FROM SWIMMING POOL MECHANICAL ROOM; AND FLOOR TILE & MASTIC FROM 2ND FLOOR SMALL RESTROOM AND SMALL OFFICE,529,t,2019-04-16,2019-12-31,2,f,f,2019-12-31,RENOVATION,40.421945,-79.8884819
PAA190199,UOP CATHEDRAL OF LEARNING - 4200 FIFTH AVENUE,,PITTSBURGH,15260,1550,4490,905,REMOVE FLOOR TILE AND CEILING PLASTER FROM GROUND FLOOR; FLOOR TILE AND MASTIC FROM ROOM B08; AND PIPE INSULATION FROM BASEMENT AND GROUND FLOOR,8454,t,2019-04-18,2020-04-01,2,t,f,2020-04-01,RENOVATION,40.4424402,-79.9531948
PAA190200,STEPHEN FOSTER MEMORIAL BUILDING - 4301 FORBES AVENUE,,PITTSBURGH,15213,450,4489,905,"REMOVE CEILING PLASTER, PIPING & DUCTWORK FROM GROUND FLOOR",866,t,2019-04-17,2020-04-01,2,t,f,2020-04-01,RENOVATION,40.4379259,-79.9556424
PAA190203,VACANT RESIDENCE,4012  LIBERTY AVE,PITTSBURGH,15224,850,1045,921,"REMOVE BROWN FLOORING FROM FIRST FLOOR, MIDDLE AREA & PILE OF ROOFING DEBRI FROM WEST SIDE OF HOUSE",1830,f,2019-04-11,2020-04-10,2,f,f,2020-04-10,RENOVATION,40.4625828,-79.9565931
PAA190204,VACANT RESIDENCE,4014  LIBERTY AVE,PITTSBURGH,15224,850,1045,921,"REMOVE ROOF TAR PAPER, WINDOW CAULKING, PLASTER ON GROUND OF THE NORTH EAST SIDE OF HOUSE & PLASTER DEBRI ON PORCH",1360,f,2019-04-11,2020-04-11,2,t,f,2020-04-11,RENOVATION,40.4627365,-79.9565494
PAA190205,MAGEE WOMENS HOSPITAL?,300 HALKET ST,PITTSBURGH,15213,200,5571,940,"REMOVE CC FLOOR TILE AND FLOOR MASTIC FROM 2800 WING - ROOM 2825, NURSE'S STATION & LAB",1340,t,2019-04-16,2019-12-30,2,f,f,2019-12-30,RENOVATION,40.4368286,-79.960688
PAA190206,MERCY HOSPITAL,1400 LOCUST ST,PITTSBURGH,15219,200,5570,940,REMOVE FLOOR TILE AND MASTIC ON 2ND FLOOR IN THE PHARMACY AND RECEIVING AREA,540,t,2019-04-16,2019-12-30,2,t,f,2019-12-30,RENOVATION,40.4362085,-79.9856207
PAA190209,PITTSBURGH LANGLEY SCHOOL,2940 SHERADEN BLVD,PITTSBURGH,15204,450,7517,921,"REMOVE FLOOR TILE & MASTIC FROM UNDER CARPET IN ROOMS 106, 106A, 106B, 106C, & 106D",900,t,2019-04-12,2020-04-11,2,t,f,2020-04-11,RENOVATION,40.4542647,-80.055305
PAA190218,ST. MARGARET HOSPITAL,815 FREEPORT RD,PITTSBURGH,15215,450,5569,940,REMOVE CC FLOOR TILE AND MASTIC FROM 3RD FLOOR SUITE 307,640,t,2019-04-29,2019-12-30,2,t,f,2019-12-30,RENOVATION,40.4891376,-79.8961109
PAA190220,RESIDENTIAL,111  HILLCREST DR,PITTSBURGH,15237,0,0,902,REMOVE VERMICULITE FROM ATTIC,989,t,2019-10-21,2019-12-31,2,f,f,2019-12-31,RENOVATION,40.5341269,-80.0232536
PAA190230,SOUTHSIDE MARKET HOUSE - 202 BEDFORD SQUARE,,PITTSBURGH,15203,850,17273,931,"REMOVE FLOOR TILE FROM ELECTRICAL ROOM 119, CLASSROOM 121, STORAGE ROOM 123, & MECHANICAL ROOM 129",1365,t,2019-04-29,2020-04-29,2,t,f,2020-04-29,RENOVATION,40.4293034,-79.9724245
PAA190231,SAINT COLUMBKILLE PARISH,103 CHURCH RD,FINDLAY,15126,1850,17274,931,"FLOOR TILE & MASTIC 2ND FLOOR CLASSROOMS, HALLWAYS, OFFICES, BATHROOMS, AND SLATE ENTRANCE",10500,t,2019-05-28,2020-05-28,2,t,f,2020-05-28,RENOVATION,40.4479816,-80.244028
PAA190233,UOP CATHEDRAL OF LEARNING - 4200 FIFTH AVENUE,,PITTSBURGH,15260,850,4493,905,PIPE INSULATION IN 2ND & 3RD FLOOR MEN'S RESTROOMS & 1ST FLOOR OFFICES MEN'S RESTROOM-CHASE,1304,t,2019-04-26,2020-04-01,2,t,f,2020-04-01,RENOVATION,40.4424402,-79.9531948
PAA190237,MICKINLEY REC GYMNASIUM,900 DELMONT AVE,PITTSBURGH,15210,1250,17342,931,REMOVE FLOOR TILE & MASTIC FROM GYMNASIUM FLOOR,3200,t,2019-05-01,2020-05-01,2,t,f,2020-05-01,RENOVATION,40.4142509,-80.0038436
PAA190239,MAGEE WOMENS HOSPITAL?,300 HALKET ST,PITTSBURGH,15213,200,5638,940,REMOVE CC FLOOR TILE AND FLOOR MASTIC FROM ROOM 2826 ON THE 2800 WING,200,t,2019-04-23,2019-12-30,2,t,f,2019-12-30,RENOVATION,40.4368286,-79.960688
PAA190244,OHRINGER BUILDING,640  BRADDOCK AVE,BRADDOCK,15104,1250,218,910,"REMOVE MULTI-COLORED FLOOR TILE FROM ENTRY AREA & 1ST FL STAIRWELL, TILE FLOOR MASTIC BRICK 1ST FL HALL & 4TH FL AREA, BROWN MASTIC FROM 2ND FL EAST OFFICE, INT GLASS BLOCK, 12 X 12 TILE FROM UNDER CARPET IN 2ND FL ENTRY AREA & RM 204, & 8TH FL TAR ROOF",4152,f,2019-05-10,2020-05-05,2,f,f,2020-05-05,RENOVATION,40.4023158,-79.8676745
PAA190245,BROTTIER HALL,700  FORBES AVE,PITTSBURGH,15219,1850,4496,905,"REMOVE VAT IN ALL KITCHENS, FIREPROOFING & CAULKING FROM ALL WINDOWS & SINK UNDERCOATING FROM ALL KITCHENS",28150,t,2019-05-01,2020-04-30,2,t,f,2020-04-30,RENOVATION,40.4373718,-79.9930918
PAA190250,WOODLAND HILLS HIGH SCHOOL,2550 GREENSBURG PIKE,PITTSBURGH,15221,800,47563,903,REMOVE PIPE FITTING INSULATION FROM 1ST/2ND FL LOCKER ROOMS & 2ND FLOOR STORAGE ROOMS; SWIMMING POOL MECHANICAL ROOM CEILING PLASTER; FLOOR TILE & MASTIC FROM 2ND FLOOR SMALL RESTROOM AND OFFICE; & TAR COARING FROM 1SAT/2ND FLOOR LOCKER ROOMS,2229,t,2019-05-01,2019-12-31,2,t,f,2019-12-31,RENOVATION,40.4372471,-79.8564576
PAA190252,ALLDERDICE HIGH SCHOOL,2409 SHADY AVE,PITTSBURGH,15217,850,7520,921,REMOVE STAIR TREAD AND LANDING MATERIAL FORM STARIWELLS 17 & 18,1345,t,2019-06-14,2020-06-14,2,t,f,2020-06-14,RENOVATION,40.4295499,-79.9191642
PAA190253,MILLER PRE K-5 PPS SCHOOL,2055 BEDFORD AVE,PITTSBURGH,15219,450,7523,921,REMOVE STAIR TREAD AND FILLER CONCRETE MATERIAL FROM STAIRWELLS A&B,500,t,2019-06-14,2020-06-13,2,t,f,2020-06-13,RENOVATION,40.4472831,-79.9807501
PAA190254,COMMERCIAL OFFICE/WAREHOUSE,7301  PENN AVE,PITTSBURGH,15208,1850,7526,921,SEE ATTACHED,15425,f,2019-05-13,2020-05-13,2,f,f,2020-05-13,RENOVATION,40.4488894,-79.899154
PAA190259,COMMONWEALTH BUILDING - 316 FOURTH AVENUE,,PITTSBURGH,15222,200,4498,905,"REMOVE VAT, PIPE & FITTINGS, CEILING PLASTER & MAST ON ALL FLOORS",257985,t,2019-04-25,2019-12-31,2,f,f,2019-12-31,RENOVATION,40.4475255,-79.9933976
PAA190260,ST. MARGARET HOSPITAL,815 FREEPORT RD,PITTSBURGH,15215,200,5689,940,"REMOVE CC FLOOR TILE AND FLOOR MASTIC IN ROOMS 303, 309, 308, 310 & CLOSET",1040,t,2019-05-02,2019-12-30,2,t,f,2019-12-30,RENOVATION,40.4891376,-79.8961109
PAA190261,UOP HILLMAN LIBRARY (PAHSE 2) - 3960 FORBES AVENUE,,PITTSBURGH,15260,1850,5648,940,"REMOVE FIREPROOFING, PIPE INSULATION, FLOOR TILE & MASTIC FROM 3RD FLOOR",100100,f,2019-05-20,2020-05-19,2,t,f,2020-05-19,RENOVATION,40.4424402,-79.9531948
PAA190272,UOP VICTORIA HALL - 3500 VICTORIA STREET,,PITTSBURGH,15261,850,4505,905,"REMOVE FLOOR TILE AND MASTIC IN ROOMS 412, 413A, 411A & 412",1220,t,2019-05-15,2019-12-31,2,t,f,2019-12-31,RENOVATION,40.441018,-79.9603627
PAA190274,AHN FORBES HOSPITAL ROOM 6036,2570 HAYMAKER RD,MONROEVILLE,15146,450,407434,929,REMOVE FLOORING,300,t,2019-05-21,2019-12-31,2,f,f,2019-12-31,RENOVATION,40.428583,-79.7479881
PAA190279,MCKEESPORT HOSPITAL (ELECTRICAL VAULT ROOF),1500 5TH AVE,MCKEESPORT,15132,200,5690,940,REMOVE ROOF FLASHING,200,t,2019-05-21,2019-12-30,2,t,f,2019-12-30,RENOVATION,40.3510349,-79.8490186
PAA190285,PITTSBURGH CAREER INSTITUTE,421  7TH AVE,PITTSBURGH,15219,200,1489,901,REMOVE FLOOR TILE/MASTIC FROM 6TH FLOOR & CEILING GLUE DOTS FROM FLOORS 5 & 6,920,t,2019-05-20,2020-03-27,2,t,f,2020-03-27,RENOVATION,40.4427382,-79.9958878
PAA190300,LAROCHE COLLEGE - PALUMBO SCIENCE CENTER,9000  BABCOCK BLVD,PITTSBURGH,15237,1550,4508,905,"REMOVE FLOOR TILE & MASTIC IN SECOND FLOOR ROOMS AND HALLWAY &  STAIRWELL LANDINGS, LABTOPS & MASTIS IN LAB CLASSROOMS, FIREDOORS ON SECOND FLOOR AND ADHESIVE FROM SECOND FLOOR CHALKBOARDS",9805,t,2019-05-28,2019-12-31,2,t,f,2019-12-31,RENOVATION,40.5683978,-80.0143279
PAA190302,APARTMENT BUILDING - 874 MOUNT PLEASANT ROAD,,PITTSBURGH,15219,850,17474,931,REMOVE MULTIPLE LAYERS OF FLOOR TILE & MASTIC THROUGHOUT BUILDING,1037,t,2019-05-31,2020-05-31,2,t,f,2020-05-31,RENOVATION,40.440368,-79.9836108
PAA190303,APARTMENT COMPLEX - 821 MOUNT PLEASANT ROAD,,PITTSBURGH,15219,850,17474,931,REMOVE MULTIPLE LAYERS OF FLOOR TILE AND MASTIC THROUGHOUT BUILDING,1264,f,2019-05-31,2020-05-31,2,t,f,2020-05-31,RENOVATION,40.440368,-79.9836108
PAA190304,APARTMENT COMPLEX - 754 MOUNT PLEASANT ROAD,,PITTSBURGH,15219,850,17474,931,REMOVE MULTIPLE LAYERS OF FLOOR TILE AND MASTIC THROUGHOUT BUILDING,1037,t,3029-05-31,2020-05-31,2,t,f,2020-05-31,RENOVATION,40.440368,-79.9836108
PAA190305,APARTMENT COMPLEX - 736 MOUNT PLEASANT ROAD,,PITTSBURGH,15219,850,17474,931,REMOVE MULTIPLE LAYERS OF FLOOR TILE AND MASTIC THROUGHOUT BUILDING,1037,t,2019-05-31,2020-05-31,2,t,f,2020-05-31,RENOVATION,40.440368,-79.9836108
PAA190306,APARTMENT COMPLEX - 701 MOUNT PLEASANT ROAD,,PITTSBURGH,15219,850,17474,931,REMOVE MULTIPLE LAYERS OF FLOOR TILE AND MASTIC THROUGHOUT BUILDING,1264,t,2019-05-31,2020-05-31,2,t,f,2020-05-31,RENOVATION,40.440368,-79.9836108
PAA190307,APARTMENT COMPLEX - 420 MOUNT PLEASANT ROAD,,PITTSBURGH,15219,850,17474,931,REMOVE MULTIPLE LAYERS OF FLOOR TILE AND MASTIC THROUGHOUT BUILDING,1037,t,2019-05-31,2020-05-31,2,f,f,2020-05-31,RENOVATION,40.440368,-79.9836108
PAA190308,APARTMENT COMPLEX - 406 MOUNT PLEASANT ROAD,,PITTSBURGH,15219,850,17474,931,REMOVE MULTIPLE LAYERS OF FLOOR TILE AND MASTIC THROUGHOUT BUILDING,1037,t,2019-05-31,2020-05-31,2,t,f,2020-05-31,RENOVATION,40.440368,-79.9836108
PAA190309,APARTMENT COMPLEX,346  PENFORT ST,PITTSBURGH,15214,850,17474,931,REMOVE MULTIPLE LAYERS OF FLOOR TILE AND MASTIC THROUGHOUT BUILDING,1037,t,2019-05-31,2020-05-31,2,t,f,2020-05-31,RENOVATION,40.4758815,-80.0000025
PAA190310,APARTMENT COMLEX,322  PENFORT ST,PITTSBURGH,15214,850,17474,931,REMOVE MULTIPLE LAYERS OF FLOOR TILE AND MASTIC THROUGHOUT BUILDING,1037,t,2019-05-31,2020-05-31,2,t,f,2020-05-31,RENOVATION,40.4757537,-80.0003788
PAA190311,APARTMENT COMPLEX,181  PENFORT ST,PITTSBURGH,15214,850,17474,931,REMOVE MULTIPLE LAYERS OF FLOOR TILE AND MASTIC THROUGHOUT BUILDING,1037,f,2019-05-31,2020-05-31,2,t,f,2020-05-31,RENOVATION,40.4746452,-80.0027778
PAA190312,APARTMENT COMPLEX,161  PENFORT ST,PITTSBURGH,15214,850,17474,931,REMOVE MULTIPLE LAYERS OF FLOOR TILE AND MASTIC THROUGHOUT BUILDING,1037,t,2019-05-31,2020-05-31,2,f,f,2020-05-31,P,40.474453,-80.0029362
PAA190313,APARTMENT COMPLEX,1439  CHICAGO ST,PITTSBURGH,15214,850,17474,931,REMOVE MULTIPLE LAYERS OF FLOOR TILE AND MASTIC THROUGHOUT BUILDING,1037,t,2019-05-31,2020-05-30,2,t,f,2020-05-30,RENOVATION,40.4792993,-80.0001503
PAA190314,APARTMENT COMPLEX - 125 -127 PENFORT ST,125  PENFORT ST,PITTSBURGH,15214,1250,17474,931,REMOVE MULTIPLE LAYERS OF FLOOR TILE AND MASTIC THROUGHOUT BOTH BUILDINGS,2074,t,2019-05-31,2020-05-30,2,t,f,2020-05-30,RENOVATION,40.4739676,-80.0032726
PAA190315,APARTMENT COMPLEX,332  MT PLEASANT RD,PITTSBURGH,15214,1250,17474,931,REMOVE MULTIPLE LAYERS OF FLOOR TILE AND MASTIC THROUGHOUT BOTH BUILDINGS,2528,t,2019-05-31,2020-05-30,2,t,f,2020-05-30,RENOVATION,40.4812575,-80.0029753
PAA190319,UPMC MCKEESPORT? HOSPITAL,1500 5TH AVE,MCKEESPORT,15132,450,5409,908,REOMVE LEVEL A CAFETERIA PIPE INSULATION,801,t,2019-05-30,2019-12-31,2,f,t,2019-07-03,RENOVATION,40.3510349,-79.8490186
PAA190320,VACANT APARTMENTS,52  GARETTA ST,PITTSBURGH,15217,1850,17524,931,REMOVE PIPE FITTINGS THROUGHOUT 84 APARTMENTS  AND SPRAY-ON FIREPROOFING ON STRUCTURAL STEEL IN 84 APARTMENTS,28680,t,2019-05-30,2020-05-30,2,f,f,2020-05-30,RENOVATION,40.4136926,-79.92169
PAA190324,INDUSTRIAL WAREHOUSE,201 N BRADDOCK AVE,PITTSBURGH,15208,1250,7628,921,REMOVE MASTIC FROM 2ND FLOOR,3000,t,2019-05-28,2020-05-28,2,f,f,2020-05-28,RENOVATION,40.4484279,-79.8948453
PAA190325,(FORMER) BALLY'S FITNESS CENTER,119  6TH ST,PITTSBURGH,15222,1850,17528,931,REMOVE FLOOR TILE & MASTIC FROM 1ST & 2ND FLOORS,21648,f,2019-05-31,2020-05-31,2,t,f,2020-05-31,RENOVATION,40.4435689,-80.001844
PAA190350,UNIVERSITY OF PITTSBURGH,5000  BAUM BLVD,PITTSBURGH,15213,200,1510,901,REMOVE FIBERBOARD AND BLACK ROPE GASKET FROM BOILER DOORS IN BOILER ROOM,250,t,2019-06-04,2019-12-25,2,t,f,2019-12-25,RENOVATION,40.4550425,-79.944171
PAA190353,UOP VICTORIA HALL,3500  VICTORIA ST,PITTSBURGH,15213,200,4512,905,REMOVE FLOOR TILE AND MASTIC IN ROOM 211,289,t,2019-06-13,2019-12-13,2,t,f,2019-12-13,RENOVATION,40.4418216,-79.9602943
PAA190367,CMU MOREWOOD GARDENS,1060 MOREWOOD AVE,PITTSBURGH,15213,200,1511,901,"REMOVE FLOOR TILE & MASTIC FROM FLOORS 2, 3, 4, 5, & 6",2500,t,2019-06-10,2019-12-31,2,t,f,2019-12-31,RENOVATION,40.4454444,-79.9432431
PAA190377,VACANT BUSINESS,7336  SALTSBURG RD,PITTSBURGH,15235,850,17684,931,REMOVE FLOOR TILE AND MASTIC THROUGHOUT BUILDING,1000,f,2019-06-19,2020-06-19,2,t,f,2020-06-19,RENOVATION,40.4772215,-79.7864649
PAA190378,UOP POSVAR HALL,230 S BOUQUET ST,PITTSBURGH,15213,200,4514,905,REMOVE 4TH FLOOR FLOOR TILE AND MASTIC,200,t,2019-06-18,2019-12-31,2,f,f,2019-12-31,RENOVATION,40.4417447,-79.9538257
PAA190380,BETTIS ATOMIC POWER LABORATORY (HQTF),814 PITTSBURGH MCKEESPORT BLVD,WEST MIFFLIN,15122,200,2023955,940,REMOVE CEMENTITUOUS PANELS FROM EXTREIOR SOUTH WALL,250,t,2019-06-17,2020-06-01,2,f,f,2020-06-01,RENOVATION,40.3560891,-79.8997901
PAA190382,UOP SALK HALL,3501  TERRACE ST,PITTSBURGH,15213,1850,4519,905,"REMOVE VAT, VAT MASTIC, PIPE, FITTINGS, TABLE TOPS, AND FUME HOODS ON ALL FLOORS, WINDOW CAULKING ON ALL SILLS, ROOF CAULKING AND CEILING PLASTER FROM ROOM 662",92130,t,2019-06-21,2020-06-20,2,f,f,2020-06-20,RENOVATION,40.4424239,-79.9629782
PAA190383,PITTSBURGH MINADEO PRE K-5,6502 LILAC ST,PITTSBURGH,15217,200,7512,921,REMOVE DUCT INSULATIN FROM GYMNASIUM ROOOM 114/115,650,t,2019-06-14,2020-04-15,2,t,f,2020-04-15,RENOVATION,40.4238559,-79.925479
PAA190393,SCAIFE HALL,3550 TERRACE ST,PITTSBURGH,15261,1050,5425 & 5479,908,"REMOVE PIPE INSULATION FROM 1ST FLOOR MECH STORAGE, RARE BOOK STORAGE, 2ND FL LIBRARY, 2M LIBRARY 4TH & 6TH FLOOR WEST WINGS; TAR ON PIPE INSULATION ON 1ST FL FORMER MECH STORAGE; AND TAR ON DUCT INSULATION ON 1ST, 2ND, 2M, 4TH & 6TH FLOORS",1823,t,2019-07-01,2019-11-30,2,t,t,2019-08-31,RENOVATION,40.4425133,-79.961826
PAA190395,UOP POSVAR HALL,230 S BOUQUET ST,PITTSBURGH,15213,1050,4521,905,"REMOVE VAT/MASTIC IN CLASSROOM 4716, 5TH FLOOR ENTRANCES AT ROOMS 5600, 5605, 5604, 5701, 5800, 5930, 5902, & 5701",3457,t,2019-06-18,2020-06-18,2,t,f,2020-06-18,RENOVATION,40.4417447,-79.9538257
PAA190415,PRESBYTERIAN HOSPITAL - DESOTO & O'HARA STREETS,,PITTSBURGH,15232,650,1006 & 1010,940,REMOVE PIPE INSULATION & FITTINGS ON 3RD FLOOR HVI AREA,790,t,2019-07-03,2019-12-28,2,f,f,2019-12-28,RENOVATION,40.451096,-79.9332613
PAA190416,CARNEGIE LIBRARY - MOUNT WASHINGTON BRANCH,315  GRANDVIEW AVE,PITTSBURGH,15211,850,7530,921,FLOOR TILE/MASTIC IN BASEMENT MEETING ROOM; THERMAL SYSTEM INSULATION PIPING AND PIPE FITTINGS THROUGHOUT BASEMENT,1115,t,2019-07-03,2020-07-02,2,t,f,2020-07-02,RENOVATION,40.4335252,-80.0104782
PAA190421,PITTSBURGH LANGLEY SCHOOL,2940 SHERADEN BLVD,PITTSBURGH,15204,1250,7521,921,"REMOVE FLOOR TILE/MASTIC & PLYWOOD SUBFLOOR FROM ROOMS 105, 105A, 105B, 107, 107A, 109, 109A - D, 140A (RESTROOM), 203 & 224",3600,t,2019-07-03,2019-12-30,2,t,f,2019-12-30,RENOVATION,40.4542647,-80.055305
PAA190422,PITTSBURGH CONROY SCHOOL,1398 PAGE ST,PITTSBURGH,15233,850,7518,921,REMOVE FLOOR TILE/MASTIC& PLYWOOD SUBFLOOR FROM ROOM 308C,1100,t,2019-07-03,2019-12-30,2,t,f,2019-12-30,RENOVATION,40.4518301,-80.0243413
PAA190425,"MCCONWAY & TORLEY, LLC",109 48TH ST,PITTSBURGH,15201,1250,1326,941,REMOVE EXTERIOR ROOFING MATERIAL FROM MAP AREA 49/50/51/52 AND MAIN ROOF EXTERIOR TRANSITE,4200,t,2019-07-05,2019-11-30,2,f,f,2019-10-01,DEMOLITION,40.4790365,-79.9608872
PAA190434,CARMALT PRE K-8 SCHOOL,1550 BREINING ST,PITTSBURGH,15226,200,7536,921,REMOVE FLOOR TILE/MASTIC AND PLYWOOD SUBFLOOR FROM ROOMS 253 & 254,256,t,2019-07-09,2019-12-30,2,t,f,2019-12-30,RENOVATION,40.3875693,-80.0070461
PAA190436,US STEEL CLAIRTON WORKS - CN STATION ROOF,400 STATE ST,CLAIRTON,15025,1250,033968,904,REMOVE BUILT UP ROOFING MATERIAL,2100,f,2019-07-11,2020-07-22,2,f,f,2020-07-22,RENOVATION,40.2940921,-79.8728393
PAA190438,FORMER MASONIC TEMPLE,338 E 9TH AVE,HOMESTEAD,15120,850,17794,931,REMOVE SHEET FLOORING IN 2ND FLOOR CLOSET; CEILING GLUE DOTS IN MULTIPLE 2ND FLOOR AREAS; & PIPE INSULATION FROM TWO RISERS,1026,t,2019-07-10,2020-07-10,2,t,f,2020-07-10,RENOVATION,40.4078407,-79.9068976
PAA190441,CHATHAM UNIVERSITY EDEN HALL CAMPUS,6035 RIDGE RD,RICHLAND,15044,200,1536,901,REMOVE PIPE INSULATINO AND FITTINGS AND BOILER CAULKING IN BASEMENT,162,f,2019-07-11,2020-07-08,2,f,f,2020-07-08,RENOVATION,40.663748,-79.9558303
PAA190443,VACANT RESIDENCE,1510  GARFIELD AVE,PITTSBURGH,15212,850,78318,931,,0,f,2019-07-01,2020-06-30,8,t,f,2020-06-30,RENOVATION,40.4578072,-80.0121077
PAA190454,VACANT OFFICE,209  9TH ST,PITTSBURGH,15222,200,1538,901,REMOVE PLASTER FROM WALLS & CEILINGS ON ALL FLOORS,62750,f,2019-07-05,2019-12-31,2,t,f,2019-12-31,RENOVATION,40.443487,-79.997933
PAA190458,WEST PENN HOSPITAL - PHARMACY - 1 WEST,4800 FRIENDSHIP AVE,PITTSBURGH,15224,450,4522,905,REMOVE MASTIC FROM OFFICES 1125 AND 1126,750,t,2019-07-10,2019-12-31,2,t,f,2019-12-31,RENOVATION,40.4614529,-79.9463637
PAA190459,WEST PENN HOSPITAL - SCHOOL OF NURSING,4800 FRIENDSHIP AVE,PITTSBURGH,15224,850,4253,905,REMOVE VAT/MASTIC FROM BASEMENT,1700,t,2019-07-10,2019-12-31,2,t,f,2019-12-31,RENOVATION,40.4614529,-79.9463637
PAA190470,RIVERVIEW TOWERS,52  GARETTA ST,PITTSBURGH,15217,200,17846,931,REMOVE METAL PANEL CAULKING UNER ALL EXTERIOR WINDOWS,400,f,2019-07-08,2020-05-30,2,t,f,2020-05-30,RENOVATION,40.4136926,-79.92169
PAA190477,"WB-454, PA TURNPIKE BRIDGE - MILEPOST 53.66",,PLUM,15239,450,4526,905,REMOVE TRANSITE PIPE TURNPIKE ROW (UNDERGROUND ABANDONED WATER LINE),840,f,2019-07-12,2019-12-31,2,f,f,2019-12-31,RENOVATION,40.4909423,-79.7287703
PAA190478,BLESSED TRINITY ACADEMY,2510 MIDDLE RD,INDIANA,15116,450,4525,905,REMOVE FLOOR TILE & MASTIC FROM PRE-SCHOOL LIBRARY AND HALLWAY,650,t,2019-07-22,2019-12-31,2,t,f,2019-12-31,RENOVATION,40.554213,-79.9323715
PAA190486,RESIDENTIAL,938  KIRKBRIDE ST,PITTSBURGH,15212,450,78424,931,REMOVE FLOOR TILE & MASTIC FROM 1ST & 2ND FLOOR HALLS,1000,f,2019-07-26,2020-07-26,2,f,f,2020-07-26,RENOVATION,40.45989,-80.0207205
PAA190487,FORMER CHURCH,501 MITCHELL AVE,CLAIRTON,15025,1850,19537,902,REMOVE CEILING MATERIAL AND FLOOR TILE/MASTIC THROUGHOUT BUILDING (SEE ATTACHED),20276,t,2019-07-25,2019-12-31,2,t,f,2019-12-31,RENOVATION,40.2916334,-79.8862948
PAA190503,RESIDENTIAL PROJECT,1522  MARQUIS WAY,PITTSBURGH,15212,850,78611,931,ASSUMED,1214,f,2019-07-18,2109-07-19,8,t,f,2109-07-19,RENOVATION,40.4571356,-80.0175905
PAA190519,UOP CATHEDRAL OF LEARNING ROOM 435 - 4200 FIFTH AVENUE,,PITTSBURGH,15260,450,4535,905,REMOVE FLOOR TILE AND MASTIC IN ROOM 435,753,t,2019-07-29,2019-12-31,2,t,f,2019-12-31,RENOVATION,40.4424402,-79.9531948
PAA190526,BETTIS ATOMIC POWER LABORATORY,814 PITTSBURGH MCKEESPORT BLVD,WEST MIFFLIN,15122,1550,2024046,940,REMOVE FLOOR TILE/MASTIC/CARPETING MASTIC & COVEBASE/COVEBASE MASTIC FROM G BUILDING AND G WEST HALLWAY AND WIRE COVER AND MASONRY DEBRIS FROM G BUILDING SUBSTATION,9574,f,2019-07-23,2020-07-21,8,f,f,2019-09-22,RENOVATION,40.3560891,-79.8997901
PAA190527,RESIDENTIAL PROJECT,701  ARMANDALE ST,PITTSBURGH,15212,850,78622,931,ASSUMED,996,f,2019-07-24,2109-08-31,8,t,f,2109-08-31,RENOVATION,40.4579224,-80.0149663
PAA190535,RESIDENTIAL PROJECT,1200  KUNKLE AVE,PITTSBURGH,15212,450,78631,931,ASSUMED,1848,f,2019-07-24,3019-08-31,8,t,f,3019-08-31,RENOVATION,40.460405,-80.024332
PAA190540,UPMC KAUFMAN BUILDING - 3471 FIFTH AVENUE,,PITTSBURGH,15232,850,1009,940,"REMOVE FLOOR TILE, MASTIC AND FIRE DAMPERS FORM 2ND FLOOR SUITE 202",3412,t,2019-08-05,2019-12-30,2,t,f,2019-12-30,RENOVATION,40.451096,-79.9332613
PAA190544,PARKLANE APARTMENTS,5700  BUNKERHILL ST,PITTSBURGH,15206,1850,356,916,REMOVE BROWN MASTIC UNDER WALL TILE IN RESTROOMS,28037,t,2019-08-05,2020-08-04,2,f,f,2020-08-04,RENOVATION,40.4792841,-79.9194674
PAA190549,RESIDENTIAL PROJECT,1506  MONTEREY ST,PITTSBURGH,15212,450,78633,931,DUE TO RENOVATION ABATEMENT IS NECESSARY,948,f,2019-08-05,2020-08-05,8,t,f,2020-08-05,RENOVATION,40.457465,-80.0134513
PAA190550,RESIDENTIAL PROJECT,513  JACKSONIA ST,PITTSBURGH,15212,450,78629,913,DUE TO RENOVATION ABATEMENT IS NECESSARY,1052,f,2019-08-05,2020-08-05,8,t,f,2020-08-05,RENOVATION,40.4572157,-80.0125741
PAA190555,MASONIC TEMPLE,338 E 9TH AVE,HOMESTEAD,15120,200,18031,931,REMOVE EXTERIOR WINDOW CAULKING,1085,t,2019-08-01,2020-07-10,2,t,f,2020-07-10,RENOVATION,40.4078407,-79.9068976
PAA190560,RESIDENCE,1915  ST IVES ST,PITTSBURGH,15212,200,78905,931,ABATEMENT NECESSARY DUE TO RENOVATION,1645,f,2019-08-01,2019-12-31,8,f,f,2019-12-31,RENOVATION,40.4597797,-80.0230789
PAA190562,AGH SNYDER PAVILION,320 E NORTH AVE,PITTSBURGH,15212,450,406507,929,REMOVE TAN GLUE & FLOOR TILE FROMAGH - 2ND FLOOR FOOD SERVICE A-LA-CART COOLER,400,t,2019-08-12,2019-12-31,2,t,f,2019-12-31,RENOVATION,40.4574469,-80.0032706
PAA190563,HERITAGE VALLEY HEALTH SYSTEMS,720  BLACKBURN RD,SEWICKLEY,15143,200,406511,929,REMOVE ACM PIPE INSULATION ABOVE SUSPENDED CEILING IN SVH 7TH FLOOR NORTH,160,t,2019-08-13,2019-12-31,2,t,f,2019-12-31,RENOVATION,40.542729,-80.1780136
PAA190565,SISTER OF THE REDEEMER MOTHERHOUSE,999 ROCK RUN RD,ELIZABETH TOWNSHIP,15037,850,18085,931,REMOVE FLOOR TILE AND MASTIC FROM LANDINGS & STAIR TREADS AND MASTIC IN 5 DIFFERENT STAIRWELLS,1525,t,2019-09-23,2020-09-23,2,t,f,2020-09-23,RENOVATION,40.273195,-79.810418
PAA190567,PITTSBURGH PUBLIC SCHOOLS ADMINISTRATIVE BUILDING,341 S BELLEFIELD AVE,PITTSBURGH,15213,200,7873,921,REMOVE VAT/MASTIC FROM ROOM 101,300,t,2019-08-20,2019-12-30,2,t,f,2019-12-30,RENOVATION,40.4446796,-79.9508724
PAA190569,15 SARGENT MESSERSCHMIDT ROAD,,OAKDALE,15071,1850,19620,902,"REMOVE FLOOR TILE & MASTIC THROUGHOUT 1ST FLOOR, TANK, PIPE & FITTING INSULATION THROUGHOUT 1ST FLOOR, BASEMENT, & MECHANICAL ROOM AND WALL MAST ON 1ST FLOOR EAST WALL",16836,t,2019-08-19,2019-11-29,2,t,f,2019-11-29,RENOVATION,40.3981246,-80.1856134
PAA190571,UPMC PASSAVANT HOSPITAL - 9100 BABCOCK BOULEVARD,,PITTSBURGH,15237,1250,5459,908,"REMOVE FIREPROOOFING FRON GROUND FLOOR MAINTENANCE STORAGE, LOCKER ROOM, & PHARMACY STORAGE AND FLOOR TILE & MASTIC FRON GROUND FLOOR MAINTENANCE STORAGE",2625,t,2019-10-17,2020-02-28,2,f,f,2020-02-28,RENOVATION,40.5610745,-80.0394123
PAA190573,SAINT MARGARET'S HOSPITAL,815 FREEPORT RD,PITTSBURGH,15215,850,1011,940,REMOVE SHEET FLOORING AND FLOOR MASTIC FROM 1ST FLOOR PHARMACY,1800,t,2019-08-22,2019-12-30,2,f,f,2019-12-30,RENOVATION,40.4891376,-79.8961109
PAA190584,RESIDENTIAL PROJECT,606  ARMANDALE ST,PITTSBURGH,15212,450,78906,931,REMOVE EXTERIOR ROOF TAR ON LOWER ROOF ONLY,375,f,2019-08-23,2020-08-23,2,f,f,2020-08-23,RENOVATION,40.4583306,-80.0142236
PAA190585,RESIDENTIAL PROJECT,313  JACKSONIA ST,PITTSBURGH,15212,850,78894,931,REOVE FLOOR TILE THROUGHOUT FIRST FLOOR,1000,f,2019-08-23,2020-08-23,2,t,f,2020-08-23,RENOVATION,40.457422,-80.011013
PAA190586,RESIDENTIAL PROJECT,709  ARMANDALE ST,PITTSBURGH,15212,850,78893,931,REMOVE FLOOR TILE AND MASTIC BASE LAYER FLOORS THROUGHOUT BUILDING,1200,f,2019-08-23,2020-08-23,2,f,f,2020-08-23,RENOVATION,40.4578405,-80.0151564
PAA190587,RESIDENTIAL PROJECT,900  CALIFORNIA AVE,PITTSBURGH,15212,1250,78897,931,REMOVE FLOOR TILE AND MASTIC THROUGHOUT FIRST FLOOR,2250,f,2019-08-23,2020-08-23,2,f,f,2020-08-23,RENOVATION,40.459395,-80.0191606
PAA190588,RESIDENTIAL PROJECT,936  KIRKBRIDE ST,PITTSBURGH,15212,450,78896,931,REMOVE FLOORING ON 1ST FLOOR,600,f,2019-08-23,2020-08-23,2,t,f,2020-08-23,RENOVATION,40.459844,-80.0206689
PAA190589,RESIDENTIAL PROJECT,515  JACKSONIA ST,PITTSBURGH,15212,1250,78895,931,REMOVE EXTERIOR SIDING ON REAR OF BUILDING,2870,f,2019-08-23,2020-08-23,2,f,f,2020-08-23,RENOVATION,40.4571785,-80.0126403
PAA190592,CBRE FAC 525,525  WILLIAM PENN PL,PITTSBURGH,15219,200,1013,940,REMOVE PIPE INSULATION FROM 4 COLUMNS ON THE 35TH FLOOR AND 33RD FLOOR,251,t,2019-08-28,2019-11-30,2,f,f,2019-11-30,RENOVATION,40.4401116,-79.9978537
PAA190596,LIBERTY BOROUGH FIRE DEPARTMENT,900 HASLAGE ST,LIBERTY,15133,850,32830,944,REMOVE CEILING SYSTEM FROM TRUCK GARAGE,1920,f,2019-08-26,2019-12-31,2,t,f,2019-12-31,RENOVATION,40.3247651,-79.8594092
PAA190602,AHN - SUBURBAN GENERAL HOSPITAL - 6TH FLOOR,100 S JACKSON AVE,PITTSBURGH,15202,450,406530,929,"REMOVE FLOOR TILE, GLUE & MASTIC",800,f,2019-09-04,2019-12-31,2,t,f,2019-12-31,DEMOLITION,40.495015,-80.0603901
PAA190603,US STEEL - CLAIRTON WORKS (BATTERY 19),400 STATE ST,CLAIRTON,15025,1850,31768,946,REMOVE CHIMNEY COLUMN COATING,14520,f,2019-09-05,2019-12-21,2,f,f,2019-12-21,DEMOLITION,40.2940921,-79.8728393
PAA190607,SCAIFE HALL,3550 TERRACE ST,PITTSBURGH,15261,1850,5468,908,"REMOVE TAR ON DUCT INSULATION, FLOOR TILE AND MASTIC, AIR HANDLER INSULATION & PIPE INSULATION ON 1ST, 2ND, 2M, 3RD, 4TH & 5TH FL, 2ND FL ELEVATOR DOOR, LAB COUNTER TOP ON 3RD & 4TH FL, ROOF FLASHING & CAULKING FROM EXT WINDOWS, DUCTS, & EXPANSION JOINT",28292,f,2019-09-03,2019-12-31,2,f,f,2019-12-31,DEMOLITION,40.4425133,-79.961826
PAA190608,PAA HOTEL,4215  5TH AVE,PITTSBURGH,15213,1550,008150,934,REMOVE BUILT-UP ROOFING AND FLASHING ON FLAT ROOF,6900,f,2019-09-03,2019-12-31,2,f,f,2019-12-31,RENOVATION,40.4449853,-79.9545955
PAA190615,6533 MEADOW STREET,,PITTSBURGH,15222,1850,131,931,"REMOVE FLOOR TILE & MASTIC & DUST & DEBRIS THOROUGHOUT BUILDING, EXTERIOR WINDOW CAULKING & 3RD FLOOR CEMENTITOUS MATERIAL",10200,f,2019-09-13,2020-09-06,2,t,f,2019-09-06,RENOVATION,40.4475255,-79.9933976
PAA190631,FORBES REGIONAL HOSPITAL,2570 HAYMAKER RD,MONROEVILLE,15146,450,47708,903,REMOVE ACM MASTIC UNDER CERAMIC IN GROUND FLOOR KITCHEN AND FLOOR TILE/MMASTIC FROM ROOM 1149 LOCKER ROOM/ROOM 1150 OFFICE,710,t,2019-09-16,2019-12-31,2,t,t,2019-09-30,RENOVATION,40.428583,-79.7479881
PAA190637,AHN-FORBES HOSPITAL - 2580 HAYMAKER ROAD,,MONROEVILLE,15146,450,406534,929,"REMOVE ACM FLOORING IN MAIN CAMPUS PHARMACY, LEVEL 1",850,t,2019-09-17,2019-12-31,2,t,f,2019-12-31,RENOVATION,40.4324714,-79.7512033
PAA190642,UOP PSOVAR HALL,230 S BOUQUET ST,PITTSBURGH,15213,200,4550,905,REMOVE FLOOR TILE AND MASTIC IN 13 ENTRANCES ON THE FIFTH FLOOR,279,t,2019-09-16,2020-06-16,2,t,f,2020-06-16,RENOVATION,40.4417447,-79.9538257
PAA190650,INDUSTRIAL - MINI WAREHOUSE,7502  THOMAS BLVD,PITTSBURGH,15208,1850,7876,921,SEE ATTACHED,10000,t,2019-09-20,2020-09-19,2,t,f,2020-09-19,RENOVATION,40.448824,-79.89541
PAA190654,"US STEEL CLAIRON 22"" MILL",400 STATE ST,CLAIRTON,15025,1550,036120,904,REMOVE GALBESTOS ROOF,8000,t,2019-09-25,2020-09-25,2,f,f,2020-09-25,RENOVATION,40.2940921,-79.8728393
PAA190655,TRACE BREWING COMPANY,4314  MAIN ST,PITTSBURGH,15224,450,6834,938,REMOVE 9X9 GREEN  AND 12X12 REDDISH-BROWN FLOOR FROM THE RAISED ENTRANCE PLATFORM,700,f,2019-09-23,2019-11-23,2,f,f,2019-11-23,RENOVATION,40.4640454,-79.9532696
PAA190656,ASHLAND CHEMICAL,2650  NEVILLE RD,NEVILLE,15225,200,5484,908,REMOVE GALBESTOS SIDING FROM BUILDING #12,170,t,2019-09-24,2019-11-29,2,f,t,2019-09-30,RENOVATION,40.4977808,-80.0913426
PAA190658,RIVERVIEW TOWER I,52  GARETTA ST,PITTSBURGH,15217,200,20873,931,REMOVE FIREPROOFING IN KITCHEN,32,f,2019-09-18,2020-05-30,2,t,f,2020-05-30,RENOVATION,40.4136926,-79.92169
PAA190659,UNITED METHODIST CHURCH-MARY S BROWN MEMORIAL,3424 BEECHWOOD BLVD,PITTSBURGH,15217,850,7879,921,REMOVE THERMAL SYSTEMS PIPE INSULATION THROUGHOUT BASEMENT,1884,t,2019-09-30,2020-09-29,2,t,f,2020-09-29,RENOVATION,40.4205611,-79.9270093
PAA190662,GBU FINANCIAL LIFE - 4254 SAW MILL RUN BLVD,,PITTSBURGH,15227,1850,14992,911,"RMEOVE MUD FITTINGS ON 2ND FLOORABOVE CEILINGS, FLOOR TILE ON 2ND & 3RD FLOORS AND MASTIC ON 3RD FLOOR",18690,t,2019-09-27,2019-12-31,2,f,f,2019-12-31,RENOVATION,40.3760655,-79.9696277
PAA190663,VA MEDICAL CENTER - UNIVERSITY DRIVE,4100  ALLEQUIPPA ST,PITTSBURGH,15213,200,47736,903,REMOVE KITCHEN AREA PIPE FITTING INSULATION AN DUCT FLEX CONNECTOR AND EXTERIOR BLACK WALL MASTIC.,172,t,2019-10-03,2019-12-31,2,t,f,2019-12-31,RENOVATION,40.4462661,-79.9608074
PAA190669,UNIVERSITY OF PITTSBURGH,5000  BAUM BLVD,PITTSBURGH,15213,200,1624,901,REMOVE ROOFING FROM 1ST FLOOR AWNING AND WALL MASTIC FROM 2ND FLOOR RESTROOM,740,f,2019-09-27,2019-12-31,2,t,f,2019-12-31,RENOVATION,40.4550425,-79.944171
PAA190673,UOP POSVAR HALL,230 S BOUQUET ST,PITTSBURGH,15213,450,4562,905,"REMOVE CARPET, GLUE & MASTIC ON FIFTH FLOOR",553,t,2019-10-04,2020-10-04,2,t,f,2020-10-04,RENOVATION,40.4417447,-79.9538257
PAA190676,PPG C-WING,400  COLLEGE PARK DR,MONROEVILLE,15146,450,008155,934,"REMOVE ROOF FLASHING FROM MAIN ROOF AIR HANDLER VENTS, COOLING TOWER CURBS & REAR WALL",505,t,2019-10-07,2019-12-06,2,t,f,2019-12-06,RENOVATION,40.449078,-79.7347989
PAA190677,WILMERDING APARTMENTS,314  COMMERCE ST,WILMERDING,15148,1850,4565,905,"REMOVE VAT/MASTIC IN ALL HALLWAYS & 19 UNITS, COVE BASE/MASTIC IN ALLHALWAYS & ROOMS AND FITTINGS IN ALL UNITS",18440,t,2019-10-07,2020-10-07,2,f,f,2020-10-07,RENOVATION,40.392952,-79.807811
PAA190678,BETTIS ATOMIC POWER LABORATORY (N BUILDING),814 PITTSBURGH MCKEESPORT BLVD,WEST MIFFLIN,15122,1250,2025414,940,"REMOVE CARPET & MASTIC ON TOP OF FLOOR TILE, FLOOR TILE MASTIC, PIPE INSULATION, CEILING PLASTER WITH MASTIC PUCKS IN W1L, AND ROOMS 101, 013, 105, 109, 111, & 113.",2840,f,2019-10-07,2020-10-06,2,f,f,2020-10-06,RENOVATION,40.3560891,-79.8997901
PAA190680,WEST PENN HOSPITAL - WEST TOWER,4800 FRIENDSHIP AVE,PITTSBURGH,15224,450,47741,903,"REMOVE FLOOR TILE & MASTIC IN 3W BASEMENT MEDIA ROOM, MICRO LAB, MICRO PREP LAB, BASEMENT GROSSING LAB CORRIDOR, & GROSSING LAB AND PIPE INSULATION IN 3W BASEMENT EXISTING MICRO PREP LAB",1500,t,2019-10-08,2020-03-31,2,f,f,2020-03-31,RENOVATION,40.4614529,-79.9463637
PAA190682,2908 SMALLMAN STREET,,PITTSBURGH,15222,1850,4566,905,REMOVE ROOFING & 1ST FLOOR WINDOW CAULKING,11010,t,2019-10-10,2020-10-10,2,f,f,2020-10-10,RENOVATION,40.4475255,-79.9933976
PAA190684,87 JOSEPH STREET,,PITTSBURGH,15227,850,19813,902,REMOVE FLOOR TILE & MASTIC THROUGHOUT BUILDING,1200,t,2019-10-11,2019-12-31,2,t,f,2019-12-31,RENOVATION,40.3760655,-79.9696277
PAA190686,PITTSBURGH ARS (BLDG 125) - 237 DEFENSE AVENUE,,CORAOPOLIS,15108,1250,1025,940,"REMOVE SHEET FLOORING IN ROOMS 009, 101, 113, 114, 115, 117 & 118 AND TRANSITE TABLE TOP IN ROOM 113",3774,t,2019-10-14,2019-12-30,2,f,f,2019-12-30,RENOVATION,40.5184013,-80.1667247
PAA190687,FIRE STATION #7,4603 STANTON AVE,PITTSBURGH,15201,200,5495,908,REMOVE STAIR TOWER ROOFING,288,t,2019-10-18,2019-12-31,2,f,f,2019-12-31,RENOVATION,40.481424,-79.937327
PAA190689,7371 HAMILTON AVENUE,,PITTSBURGH,15222,1850,134,931,"REMOVE PLASTER WALLS, DUST & DEBRIS THROUGHOUT, INCLUDING DEBRIS ON FLOOR, FLOOR TILE & MASTIC FROM HALLS, STAIRWELLS & APARTMENT 3 AND EXTERIOR WINDOW CAULKING",8770,t,2019-10-14,2020-10-14,2,t,f,2020-10-14,RENOVATION,40.4475255,-79.9933976
PAA190691,OUR LADY OF PEACE CHURCH - 907 MIDDLE STREET,,PITTSBURGH,15212,850,09821,902,"REMOVE FLOOR TILE AND MASTIC FROM OFFICE 117 & ADJACENT HALLWAY AND FLOOR TILE AND MASTIC FROM OFFICE 112, 113, 114, 116 AND ADJACENT HALLWAY",1900,t,2019-10-09,2019-12-31,2,t,f,2019-12-31,RENOVATION,40.4828051,-80.0367259
PAA190692,COMMONWEALTH BUILDING - 316 FOURTH AVENUE,,PITTSBURGH,15219,1850,1643,901,"REMOVE PIPE INSULATION AND FITTINGS AND CLEANUP IN ATTIC, PIPE IN DUMPSTER AND BUILT -UP ROOFING",12559,f,2019-10-21,2019-12-25,2,f,f,2019-12-25,RENOVATION,40.440368,-79.9836108
PAA190693,OHRINGER ARTS OF BRADDOCK L.P.,640  BRADDOCK AVE,BRADDOCK,15104,200,252,910,REMOVE FROM BASEMENT PIPE AND DUCT INSULATION AND DEBRIS,202,f,2019-11-13,2020-10-20,2,f,f,2020-10-20,RENOVATION,40.4023158,-79.8676745
PAA190697,CHASE CORPORATION,201  ZETA DR,PITTSBURGH,15238,450,6871,953,REMOVE LOOSE TRANSITE SIDING ON ROOF AREA,600,t,2019-10-30,2019-12-30,2,t,f,2019-12-30,RENOVATION,40.5049871,-79.8611393
PAA190698,ALLEGHENY COUNTY AIRPORT AUTHORITY,12 ALLEGHENY COUNTY AIRPORT,WEST MIFFLIN,15122,450,4790,911,REMOVE FLOOR TILE AND MASTIC FROM FORMER JAIL AREA,862,t,2019-10-23,2019-12-31,2,t,f,2019-12-31,RENOVATION,40.3538144,-79.93059
PAA190700,NOVA PLACE,100 S COMMONS ST,PITTSBURGH,15212,1850,1355,941,REMOVE FLOOR TILE AND MASTIC FROM VACANT SPACE WITHIN MAIN CONCOURSE,20340,t,2019-10-28,2019-12-30,2,f,f,2019-12-30,RENOVATION,40.4511937,-80.0047559
PAA190702,ALLEGHENY GENERAL HOSPITAL,320 E NORTH AVE,PITTSBURGH,15212,450,406572,929,"REMOVE WHITE VINYL SHEET FLOOR WITH BLACK MASTIC ON CONCRETE FLOOR IN MAIN CAMPUS, EP LABS 1&2 AND 4TH FLOOR SNYDER",687,t,2019-10-24,2019-12-31,2,t,f,2019-12-31,RENOVATION,40.4574469,-80.0032706
PAA190703,PPG INDUSTRIES INC,151 COLFAX ST,SPRINGDALE BORO,15144,450,19854,902,REMOVE CARPET & MASTIC FROM CONFERENCE ROOM,960,t,2019-10-29,2019-12-31,2,t,f,2019-12-31,RENOVATION,40.5380846,-79.7839701
PAA190705,FORMER JAMES STREET TAVERN,422  FORELAND ST,PITTSBURGH,15212,1250,6850,938,"REMOVE PIPE WRAP IN BASEMENT, MASTIC IN BASEMENT KITCHEN, FLOOR TILE & MASTIC IN BASEMENT & FIRST FLOOR SEATING AREA AND SECOND FLOOR CORRIDOR",2949,f,2019-10-15,2020-10-13,2,t,f,2020-10-13,RENOVATION,40.454377,-80.0010428
PAA190711,MALLET FOODS - 1 NORTH BELL AVENUE,,CARNEGIE,15106,200,19862,902,REMOVE ROOF SHINGLES ON LEFT SIDE OF BUILDING ROOF,240,t,2019-10-29,2019-12-31,2,t,f,2019-12-31,RENOVATION,40.4086802,-80.0833885
PAA190712,ATI FLAT ROLLED PRODUCTS - 100 RIVER ROAD,,BRACKENRIDGE,15014,1550,19855,902,REMOVE TRANSITE SIDING FROM THE EXTERIOR OF HSM HOT SLUDGE PRESS BUILDING,6000,t,2019-10-28,2019-12-31,2,t,f,2019-12-31,RENOVATION,40.6090654,-79.7413896
PAA190715,PASSAVANT HOSPITAL - 9102 BABCOCK BOULEVARD,,PITTSBURGH,15237,450,1028,940,"REMOVE CARPET CC AND FLOOR MASTIC FROM T BUILDING 1103 BUSINESS OFFICE, 1106 WAITING ROOM AND CORRIDOR",570,t,2019-10-31,2019-11-30,2,f,f,2019-11-30,RENOVATION,40.5610745,-80.0394123
PAA190716,UPMC MONTEFIORE (MUH),3459 5TH AVE,PITTSBURGH,15213,450,6143,940,REMOVE FLOOR TILE ROOM 815 & PIPE INSULATION FROM ROO 817 ON THE 8TH FLOOR,686,t,2019-11-04,2019-12-30,2,f,f,2019-12-30,RENOVATION,40.4405925,-79.9617686
PAA190717,"911TH AIRLIFT WING - PGH INTERNATIONAL AIRPORT, ARS",,CORAOPOLIS,15108,850,5516,908,REMOVE ROOF FLASHING FROM BUILDING 417,1063,t,2019-11-05,2019-11-29,2,f,f,2019-11-29,RENOVATION,40.5184013,-80.1667247
PAA190718,FIFTH NEVILELE APARTMENTS - 4705 FIFTH AVENUE,,PITTSBURGH,15213,200,5515,908,REMOVE LIGHT FIXTURE HEAT SHIELDS FROM ALL FLOORS,80,f,2019-10-29,2019-12-31,2,t,f,2019-12-31,RENOVATION,40.4379259,-79.9556424
PAA190720,,7510  THOMAS BLVD,PITTSBURGH,15208,1550,7885,921,"REMOVE THERMAL SYSTEM INSULATION FROM BASEMENT AND FIRST FLOOR, BROWN 9X9 FLOOR TILE FROM UPSTAIRS OFFICE AREA AND TRANSITE CEILING PANELS FROM WAREHOUSE CEILING",4818,t,2019-11-04,2020-11-03,2,f,f,2020-11-03,RENOVATION,40.4497498,-79.8946054
PAA190723,BETTIS ATOMIC POWER LABORATORIES K BUILDING,814 PITTSBURGH MCKEESPORT BLVD,WEST MIFFLIN,15122,850,2025192,940,REMOVE FLOOR TILE AND MASTIC FROM INTERIOR FLOOR,1162,f,2019-11-11,2020-11-11,2,f,f,2020-11-11,RENOVATION,40.3560891,-79.8997901
PAA190726,BETTIS ATOMIC POWER LABORATORY - G BUILDING,814 PITTSBURGH MCKEESPORT BLVD,WEST MIFFLIN,15122,1850,2025865,940,"REMOVE FLOOR TILE & MASTIC IN LOW BYA AND LEAN-TO AREAS, EXTERIOR WINDOW CAULKING AND  INTERIOR/EXTERIOR WINDOW GLAZING AND FLOOR",11510,t,2019-11-11,2020-11-10,2,f,f,2020-11-10,RENOVATION,40.3560891,-79.8997901
PAA190727,SAINT CLAIR HOSPITAL,1000  MCNEILLY RD,SCOTT,15243,450,1029,940,REMOVE FLOOR TILE IN FIRST FLOOR ES OFFICES,465,t,2019-11-13,2019-12-30,2,f,f,2019-12-30,RENOVATION,40.3866737,-80.0262452
PAA190731,400 & 408 NORTH AIKEN AVENUE,400 N AIKEN AVE,PITTSBURGH,15206,850,21156,931,"REMOVE PLASTER WALLS, DUST AND DEBRIS THROUGHOUT EACH UNIT INCLUDING DEBRIS ON FLOOR",2000,f,2019-11-14,2020-11-14,2,f,f,2020-11-14,RENOVATION,40.4678087,-79.9343833
PAA190732,"410, 412, 414, 416 & 416.5 NORTH AIKEN AVENUE",410 N AIKEN AVE,PITTSBURGH,15206,850,21156,931,"REMOVE PLASTER WALLS, DUST AND DEBRIS THROUGHOUT EACH UNIT, INCLUDING DEBRIS ON FLOOR",5000,f,2019-11-14,2020-11-14,2,f,f,2020-11-14,RENOVATION,40.467979,-79.934161
PAA190733,PRESBYTERIAN HOSPITAL,200 LOTHROP ST,PITTSBURGH,15213,200,1030,940,REMOVE FIREPROOFING AND PIPE INSULATION FROM LOBBY LEVEL EMERGENCY DEPARTMENT EL83,55,t,2019-11-18,2019-12-30,2,f,f,2019-12-30,RENOVATION,40.4425606,-79.9609827
PAA190737,CMU WAREHOUSE - 6555 PENN AVENUE,,PITTSBURGH,15213,450,1677,901,REMOVE FLOOR TILE AND MASTIC IN ROOM 101H,360,t,2019-11-25,2020-01-30,2,f,f,2020-01-30,RENOVATION,40.4379259,-79.9556424
PAA192001,UNIVERSITY OF PITTSBURGH O&M - 3412 FORBES AVENUE,,PITTSBURGH,15219,850,4436,905,REMOVE VARIOUS ITEMS FROM VARIOUS BUILDINGS THROUGHOUT THE CAMPUS,160,t,2019-01-03,2019-12-31,3,f,f,2019-12-31,RENOVATION,40.440368,-79.9836108
PAA192002,US STEEL TOWER VARIOUS 2019 O&M,600 GRANT ST,PITTSBURGH,15219,850,5264,908,REMOVE VARIOUS MATERIALS THROUGHOUT THE BUILDING,160,t,2019-01-03,2019-12-31,3,f,f,2019-12-31,RENOVATION,40.4414139,-79.9947082
PAA192003,"ALLEGHENY COUNTY O&M CIY COUNTY, COUNTY OFFICE COURTHOUSE",414 GRANT ST,PITTSBURGH,15219,850,4521,911,"REMOVE PIPE & FITTINGS, FLOOR TILE/MASTIC & PLASTER THROUGHOUT",160,t,2019-01-01,2019-12-31,3,f,f,2019-12-31,RENOVATION,40.4382355,-79.9966742
PAA192004,USS CLAIRTON WORKS - ANNUAL BLANKET NOTIFICATION - O&M,400 STATE ST,CLAIRTON,15025,850,28900,946,"REMOVE TSI, MASTIC, GASKET & MSCELLANEOUS PLANTWIDE",9000,t,2019-01-02,2019-12-31,3,f,f,2019-12-31,RENOVATION,40.2940921,-79.8728393
PAA192005,EDGAR THOMSON WORKS ANNUAL O&M NOTIFICATIONS,1300 BRADDOCK AVE,BRADDOCK,15104,850,28902,946,"REMOVE TSI, MASTIC, GASKET & MISCELLANEOUS PLANTWIDE",2000,t,2019-01-02,2019-12-31,3,f,f,2019-12-31,RENOVATION,40.3971281,-79.8593594
PAA192006,USS IRVIN WORKS - ANNUAL O&M NOTIFICATION - PO BOX 878,,DRAVOSBURG,15034,850,28901,946,"REMOVE TSI, MASTIC, GASKETS, & MISCELLANEOUS PLANTWIDE",2000,t,2019-01-02,2019-12-31,3,f,f,2019-12-31,RENOVATION,40.351279,-79.8884819
PAA192007,UNIV OF PGH APPLIED RESEARCH CTR - 3170 WILIAM PITT WAY,,HARMAR,15024,850,20933,941,"REMOVE FLOOR TILE/MASTIC, PIPE INSULATION, TRANSITE, & SPRAY ON INSULATION THROUGHOUT",149,t,2019-01-01,2019-12-31,3,f,f,2019-12-31,RENOVATION,40.545741,-79.8352767
PAA192010,DUQUESNE LIGHT COMPANY O&M,2833 NEW BEAVER AVE,PITTSBURGH,15233,850,12553,918,REMOVE ARC PROOF TAPE & CEMENT FROM VARIOUSE MANHOLES & VAULTS AND WIRE COVERING FROM VARIOUS SUBSTATIONS,4500,f,2019-01-01,2019-12-31,3,f,f,2019-12-31,RENOVATION,40.4674277,-80.0378059
PAA192012,UPMC MCKEESPORT HOSPITAL O&M,1500 5TH AVE,MCKEESPORT,15132,850,5201,940,"REMOVE FLOOR TILE, MASTIC, TSI, ROOFING, LINOLEUM THROUGHOUT",160,t,2019-01-01,2019-12-31,3,f,f,2019-12-31,RENOVATION,40.3510349,-79.8490186
PAA192014,UPMC PASSAVANT HOSPITAL O&M - 9100 BABCOCK BLVD,,PITTSBURGH,15237,850,5202,940,"REMOVE FLOOR TILE, MASTIC, TSI, ROOFING, LINOLEUM & FIREPROOFING THROUGHOUT",160,t,2019-01-01,2019-12-31,3,f,f,2019-12-31,RENOVATION,40.5610745,-80.0394123
PAA192015,PGH PUBLIC SCHOOLS - VARIOUS SCHOOLS O&M,1305 MURIEL ST,PITTSBURGH,15203,850,7744,921,"REMOVE PLASTER, VAT, MASTIC, ROOFING, PIPE INSULATION & FITTINGS, DUCT INSULATION & SEAM TAPE, TRANSITE, GLUE DOTS, WINDOW CAULKING, FIRE PROOFING, ACOUSTICAL SPRAY ON CEILING TILE & CEMENT CAP IN VARIOUS LOCATIONS THORUGHOUT VARIOUS SCHOOLS",159,t,2019-01-03,2019-12-31,3,f,f,2019-12-31,RENOVATION,40.4304572,-79.9847468
PAA192016,ENERGY CENTER PITTSBURGH O&M,111 S COMMONS ST,PITTSBURGH,15212,850,4447,905,REMOVE VARIOUS MATERIALS ON BOTH FLOORS,160,t,2019-01-01,2019-12-31,3,f,f,2019-12-31,RENOVATION,40.4502772,-80.0052046
PAA192017,BETTIS ATOMIC POWER LABORATORY,814 PITTSBURGH MCKEESPORT BLVD,WEST MIFFLIN,15122,850,2022108,919,"REMOVE FLOOR TILE, MASTIC, PIPE LAGGING, ROOFING, TRANSITE, GALBESTOS, CAULKING, GASKETS, DRIP TAPE, JOINT COMPOUND, STAIR TREADS, PACKINGS, BRAKES, DUCT SEAL AND WIRING & ELECTRCAL COMPONENTS",160,t,2019-01-01,2019-12-31,3,f,f,2019-12-31,RENOVATION,40.3560891,-79.8997901
PAA192018,BETTIS ATOMIC POWER LABORATORY O&M,814 PITTSBURGH MCKEESPORT BLVD,WEST MIFFLIN,15122,850,2022108,906,"REMOVE FLOOR TILE, MASTIC, PIPE LAGGING, ROOFING, TRANSITE, GALBESTOS, CAULKING, GASKETS, DRIP TAPE, JOINT COMPOUND, STAIR TREADS, PACKINGS, BRAKES, DUCT SEAL AND WIRING & ELECTRCAL COMPONENTS",160,t,2019-01-01,2019-12-31,3,f,f,2019-12-31,RENOVATION,40.3560891,-79.8997901
PAA192020,VERIZON 7TH AVE 2019 O&M - 416 SEVENTH AVE,,PITTSBURGH,15222,850,5270,908,"REMOVE PIPE INSULATION, FLOOR TILE, CAULKING, DUCT INSULATION AND MASTIC THROUGHOUT BUILDING",160,t,2019-01-01,2019-12-31,3,f,f,2019-12-31,RENOVATION,40.4475255,-79.9933976
PAA192021,VERIZON VARIOUS BLDGS 2019 O&M - 15 E MONTGOMERY AVE,,PITTSBURGH,15212,850,5271,908,"REMOVE PIPE INSULATION, FLOOR TILE, DUCT INSULATION, ROOFING, TRANSITE PANELS, CAULKING AND OTHER MISCELLANEOUS MATERIAL THROUGHOUT VARIOS AREAS IN VARIOUS BUILDINGS",160,f,2019-01-01,2019-12-31,3,f,f,2019-12-31,RENOVATION,40.4828051,-80.0367259
PAA192024,US STEEL - CLAIRTON WORKS O&M,400 STATE ST,CLAIRTON,15025,850,011267,949,REMOVE MASTIC PAINT FROM DISMANTLED SECTIONS OF COKE OVEN GAS PIPELING,500,t,2019-01-01,2019-12-31,3,f,f,2019-12-31,RENOVATION,40.2940921,-79.8728393
PAA192032,NEVILLE CHEMICAL COMPANY 2019 O&M,2800 NEVILLE RD,NEVILLE,15225,850,18878,902,"REMOVE TSI, FLOOR TILE & MASTIC, TRANSITE & GASKET THROUGHOUT FACILITY",160,t,2019-01-04,2019-12-31,3,f,f,2019-12-31,RENOVATION,40.5021565,-80.1012757
PAA192033,UPMC MERCY 2019 O&M,1400 LOCUST ST,PITTSBURGH,15219,850,5275,908,"REMOVE FLOOR TILE, PIPE INSULATION & FITTINGS THROUGHOUT UPMC MERCY HOSPITAL AND UPMC MERCY HEALTH CENTER",160,t,2019-01-08,2019-12-31,3,f,f,2019-12-31,RENOVATION,40.4362085,-79.9856207
PAA192034,CARNEGIE MELLON UNIVERSITY O&M,5000 FORBES AVE,PITTSBURGH,15213,850,1347,901,"REMOVE PITE INS & FITTINGS, FLOOR TILE & MASTIC, TRANSITE, CEILING/WALL PLASTER AND MISCELLANEOUS MATERIALS THROUGHOUT THE CAMPUS",160,t,2019-01-08,2019-12-31,3,f,f,2019-12-31,RENOVATION,40.4441647,-79.9433725
PAA192045,JEFFERSON HOSPITAL - O&M,565 COAL VALLEY RD,JEFFERSON HILLS,15025,850,5286,908,"REMOVE FLOOR TILE, PIPE INSULATION & FITTINGS THROUGHOUT THE BUILDING",160,t,2019-01-18,2019-12-31,3,f,f,2019-12-31,RENOVATION,40.3184396,-79.9334877
PAA192046,UPMC ANNUAL PERMIT - O&M,,PITTSBURGH,15213,850,5271,940,"REMOVE FLOOR TILE/LINOLEUM, FLOOR MASTIC, TSI, ROOFING & FIREPROOFING, IN VARIOUS BUILDINGS",160,t,2019-01-21,2019-12-31,3,f,f,2019-12-31,RENOVATION,40.4379259,-79.9556424
PAA192047,OMNI WILLIAM PENN HOTEL O&M,530 WILLIAM PENN PL,PITTSBURGH,15219,850,4453,905,REMOVE VARIOUS MATERIALS THROUGHOUT THE OMNI HOTEL,160,t,2019-01-18,2019-12-31,3,f,f,2019-12-31,RENOVATION,40.440592,-79.996589
PAA192051,"PPG INDUSTRIES, INC 2019 O&M",440 COLLEGE PARK DR,MONROEVILLE,15146,850,18915,902,"REMOVE FLOOR TILE/MASTIC, PIPE INSULATION, MUDDED FITTINGS, FIREPROOFING, TRANSITE & LAB TOPS THROUGHOUT BUILDING",160,t,2019-01-22,2019-12-31,3,f,f,2019-12-31,RENOVATION,40.446669,-79.733191
PAA192058,ASHLAND CHEMICAL 0&M,2650  NEVILLE RD,NEVILLE,15225,850,12697,908,"REMOVE MISCELLANEOUS MATERIALS THORUGHOUT OFFICES AND LABORATORIES, THERMAL SYSTEM INSULATION THROUGHOUT OFFICES, LABS, TANKS & PIPE RACKS AND SURFACING THROUGHOUT OFFICES AND LABORATORIES",160,t,2019-01-23,2019-12-31,3,f,f,2019-12-31,RENOVATION,40.4977808,-80.0913426
PAA192059,CHAMBER OF COMMERCE BLDG O&M,411  7TH AVE,PITTSBURGH,15219,850,12696,940,REMOVE THERMAL SYSTEM AND MISCELLANEOUS MATERIALS THROUGHOUT BUILDING,160,t,2019-01-24,2019-12-31,3,f,f,2019-12-31,RENOVATION,40.4428627,-79.996412
PAA192060,NOVA PLACE TOWER 2 & MAIN CONCOURSE O&M,100 S COMMONS ST,PITTSBURGH,15212,850,211,941,"REMOVE FLOOR TILE, FLOOR MASTIC, PIPE LAGGING & FIREPROOFING FROM VARIOUS LOCATIONS THROUGHOUT",160,t,2019-01-22,2019-12-31,3,f,f,2019-12-31,RENOVATION,40.4511937,-80.0047559
PAA192067,DUQUESNE UNIVERSITY O&M,600 FORBES AVE,PITTSBURGH,15219,850,00333877,912,"REMOVE FLOOR TILE, MASTIC, CEILING/WALL PLASTER, FIRE PROOFING, THEMAL INSULATION & TRANSITE PANELS FROM VARIOUS LOCATIONS THROUGHOUT THE BUILDINGS",160,t,2019-01-21,2019-12-31,3,f,f,2019-12-31,RENOVATION,40.4386696,-79.9944656
PAA192075,THE DUQUESNE CLUB O&M,325  6TH AVE,PITTSBURGH,15222,850,47459,903,"REMOVE PIPE INSULATION, DUCT INSULATION, & PLASTER AS REQUIRED THROUGHOUT BUILDING",160,t,2019-02-05,2019-12-31,3,f,f,2019-12-31,RENOVATION,40.44218,-79.998442
PAA192078,K&L GATES CENTER O&M,210 6TH AVE,PITTSBURGH,15222,850,5519,940,"REMOVE FLOOR TILE, PIPE INSULATION & APPLIED FIREPROOFING FROM VARIOUS FLOORS",160,t,2019-03-22,2019-12-31,3,f,f,2019-12-31,RENOVATION,40.4420432,-80.0001254
PAA192114,AHN SUBURBAN GENERAL HOSPITAL O&M,100 S JACKSON AVE,PITTSBURGH,15202,850,407384,929,"REMOVE VCT, BLACK MASTIC, FIRE PROOFING & SHEET FLOORING IN ALL AREAS OF THE HOSPITAL",160,f,2019-02-20,2019-12-31,3,f,f,2019-12-31,RENOVATION,40.495015,-80.0603901
PAA192115,AHN JEFFERSON HOSPITAL O&M,565 COAL VALLEY RD,JEFFERSON HILLS,15025,850,407384,929,"REMOVE VCT, BLACK MASTIC, FIRE PROOFING & SHEET FLOORING FROM ALL AREAS OF THE HOSPITAL",160,t,2019-02-20,2019-12-31,3,f,f,2019-12-31,RENOVATION,40.3184396,-79.9334877
PAA192116,AHN ALLEGHENY GENERAL HOSPITAL O&M,320 E NORTH AVE,PITTSBURGH,15212,850,407384,929,"REMOVE VCT, BLACK MASTIC, FIRE PROOFING & SHEET FLOORING FROM ALL AREAS OF THE HOSPITAL",160,t,2019-02-20,2019-12-31,3,f,f,2019-12-31,RENOVATION,40.4574469,-80.0032706
PAA192117,AHN ALLEGHENY VALLEY HOSPITAL O&M,1301 CARLISLE ST,FAWN,15065,850,407384,929,"REMOVE VCT, BLACK MASTIC, FIRE PROOFING & SHEET FLOORING IN ALL AREAS OF HOSPITAL",160,t,2019-02-20,2019-12-31,3,f,f,2019-12-31,RENOVATION,40.618767,-79.736921
PAA192159,UNION TRUST BUILDING O&M,501  GRANT ST,PITTSBURGH,15219,850,5329,908,REMOVE PIPE INSULATION; FLOOR TILE/MASTIC; ACOUSTICAL PLASTER; PIPE FITTINGS; FIREPROOFING; & TRANSITE THROUGHOUT BUIDLING,160,t,2019-03-12,2019-12-31,3,f,f,2019-12-31,RENOVATION,40.4397355,-79.9971547
PAA192171,UPMC SHADYSIDE? HOSPITAL O&M,5230 CENTRE AVE,PITTSBURGH,15232,850,5272,940,"REMOVE FLOOR TILE, MASTIC, TSI, ROOFING & LINOLEUM THROUGHT BUILDING",160,t,2019-03-19,2019-12-31,3,f,f,2019-12-31,RENOVATION,40.4548396,-79.9391194
PAA192228,CARNEGIE MELLON UNIVERSITY - O&M,5000 FORBES AVE,PITTSBURGH,15213,850,19242,902,"REMOVE FLOOR TILE/MASTIS, PIPE & FITTING INSULATION, ROOFING, TRANSITE, CEILING/WALL PLASTER, FIREPROOFING, DUCT WRAP & BOILER INSULATION IN VARIOUS AREAS",160,t,2019-04-29,2019-12-31,3,f,f,2019-12-31,RENOVATION,40.4441647,-79.9433725
PAA192335,"STANDARD FORGED PRODUCTS, LLC 2019 O&MN",75 NICHOL AVE,MCKEES ROCKS,15136,850,0004527493,941,VAROIUS UBIQUITOUS MATERIALS THROUGHOUT THE BUILDING REPORTED DURING THE QUARTERLY O&M REPORT,165,t,2019-05-31,2019-12-31,2,f,f,2019-12-31,RENOVATION,40.4823036,-80.065283
PAA192381,DUQUESNE LIGHT O&M - VARIOUS LOCATIONS,2835  BEAVER AVE,PITTSBURGH,15233,850,CC 06363,942,REMOVE VAIROUS MATERIALS IN VARIOUS LOCATIONS IN VARIOUS SUBSTATIONS,160,t,2019-06-13,2019-12-31,3,f,f,2019-12-31,RENOVATION,40.4660998,-80.0371189
PAA194026,"7051 HAMILTON AVENUE - PITTSBRGH, PA 15208",,PITTSBURGH,15208,450,16612,931,REMOVE ROOF TAR,400,t,2019-01-07,2020-01-07,2,t,f,2020-01-07,DEMOLITION,40.4509149,-79.9024779
PAA194027,VACANT BAR,7001  HAMILTON AVE,PITTSBURGH,15208,850,16612,931,DEMOLISH STRUCTURE AND GRADE LOT - ALL MATERIAL BEING TREATED AS ACM,2000,f,2019-01-07,2020-01-07,2,t,f,2020-01-07,DEMOLITION,40.4557965,-79.9019968
PAA194028,4 W NORTH AVENUE,,PITTSBURGH,15212,850,7746,921,"REMOVE CAULKING, FLASHING & ROOFING",1500,f,2019-01-09,2020-01-08,2,t,f,2020-01-08,DEMOLITION,40.4828051,-80.0367259
PAA194029,VACANT COMMERCIAL BUILDING,6 W NORTH AVE,PITTSBURGH,15212,850,7746,921,"REMOVE CAULKING, GLAZING & ROOFING",1500,f,2019-01-09,2020-01-08,2,t,f,2020-01-08,DEMOLITION,40.4556512,-80.0070379
PAA194030,VACANT COMMERCIAL BUILDING,8 W NORTH AVE,PITTSBURGH,15212,850,7746,921,"REMOVE WINDOW CAULK, FLUE PIPE & FLASHING",1500,f,2019-01-09,2020-01-08,2,t,f,2020-01-08,DEMOLITION,40.4555968,-80.0071366
PAA194074,VACANT RESIDENCE,1939  SEDGWICK ST,PITTSBURGH,15212,850,16757,931,"REMOVE FLOOR TILE IN KITCHEN AND DINING ROOM, BROWN STAIR TRED IN STAIRWELL TO 2ND FLOOR AND ROOFING MATERIALS AND TAR FROM ROOF",1700,f,2019-01-31,2020-01-31,2,t,f,2020-01-31,DEMOLITION,40.4599291,-80.0243455
PAA194100,VACANT RESIDENCE,1707  MCCLURE ST,HOMESTEAD,15120,350,10033404,915,REMOVE WINDOW GLAZING FROM BSM/LIVING ROOM AND SEAM TAPE FROM DUCT WORK,180,f,2019-02-22,2019-12-31,3,t,f,2019-12-31,DEMOLITION,40.4024057,-79.9017235
PAA194101,VACANT RESIDENCE,354 W 11TH AVE,HOMESTEAD,15120,350,10033404,915,DEMO IN PLACE,2500,f,2019-02-16,2019-12-31,2,t,f,2019-12-31,DEMOLITION,40.4016854,-79.9129894
PAA194102,VACANT RESIDENCE,201 W 13TH AVE,HOMESTEAD,15120,350,10033404,915,REMOVE 9X9 FLOOR TILE FROM B.R./BEDROOM 3 AND 12X12 FLOOR TILE AND WINDOW CAULKING FROM BSM KITCHEN,240,f,2019-02-22,2019-12-31,3,t,f,2019-12-31,DEMOLITION,40.4021008,-79.9098063
PAA194103,VACANT RESIDENCE,245 E 20TH AVE,HOMESTEAD,15120,350,10033404,915,REMOVE 12X12 FLOOR TILE FROM KITCHEN & BEDROOM,650,f,2019-02-22,2019-12-31,3,t,f,2019-12-31,DEMOLITION,40.400465,-79.9008379
PAA194104,VACANT RESIDENCE,356 W 11TH AVE,HOMESTEAD,15120,350,10033404,915,DEMO IN PLACE,2500,f,2019-02-16,2019-12-31,2,t,f,2019-12-31,DEMOLITION,40.4015569,-79.9128879
PAA194105,VACANT RESIDENCE,107 W 13TH AVE,HOMESTEAD,15120,350,10033404,915,DEMO IN PLACE,2500,f,2019-02-16,2019-12-31,2,t,f,2019-12-31,DEMOLITION,40.403065,-79.908778
PAA194126,VACANT RETAIL/APARTMENTS,601  BALDRIDGE AVE,BRADDOCK,15104,350,7516,921,DEMOLISH STRUCTURE AND GRADE LOT - ALL MATERIAL BEING TREATED AS ACM,3500,f,2019-03-05,2020-03-04,2,t,f,2020-03-04,DEMOLITION,40.4056351,-79.8633053
PAA194148,VACANT RESIDENCE,533  NORTH AVE,MILLVALE,15209,350,7525,921,DEMOLISH BUILDING WITHIN AN EXTERIOR REGULATED WORK AREA AS PER EMERGENCY ORDER OF MUNICIPALITY,1536,f,2019-03-07,2020-03-06,2,t,f,2020-03-06,DEMOLITION,40.4846249,-79.9731346
PAA194165,VACANT RESIDENCE,1716  MURDOUGH ST,BRADDOCK,15104,350,7534,921,DEMOLISH BUILDING WITHIN AN EXTERIOR REGULATED WORK AREA AS PER EMERGENCY ORDER OF MUNICIPALITY,1504,f,2019-03-13,2020-03-12,3,t,f,2020-03-12,DEMOLITION,40.3989199,-79.8417321
PAA194166,HOMEWOOD SCHOOL,7100 HAMILTON AVE,PITTSBURGH,15208,1850,7522,921,SEE ATTACHED FOR THE LIST OF MATERIALS TO BE REMOVED,12487,f,2019-03-27,2020-03-26,2,t,f,2020-03-26,DEMOLITION,40.4546642,-79.899407
PAA194182,FORMER JAISON'S DEPARTMENT STORE,215  5TH AVE,MCKEESPORT,15132,1550,19159,902,"REMOVE PIPE & FITTING INSULATION ON THE PERIMETER PIPE CHASES ON THE 1ST, 2ND, & 3RD FLOOR, FLOOR TILE & MASTIC THROUGHOUT BASEMENT, & FLOOR TILE ON 2ND FLOOR",5660,t,2019-04-04,2019-12-31,2,f,t,2019-05-31,DEMOLITION,40.3511711,-79.8658162
PAA194330,VACANT RESIDENCE - 2609 SOUTH BRADDOCK AVENUE,,PITTSBURGH,15216,350,7535,921,REMOVE VINYL SHEET FOORING FROM KITCHEN AND BASEMENT STAIRWELL,200,f,2019-06-06,2020-06-05,2,t,f,2020-06-05,DEMOLITION,40.3929691,-80.0479039
PAA194331,VACANT RESIDENCE,2109  MONONGAHELA AVE,PITTSBURGH,15218,350,7532,921,REMOVE PLASTER THROUGHOUT & 12X12 VINYL FLOOR TILE,10072,f,2019-06-06,2020-06-05,2,t,f,2020-06-05,DEMOLITION,40.4180516,-79.8877878
PAA194332,VACANT TRIPLEX RESIDENCE - 2113-2115 HUDSON STREET,2113  HUDSON ST,PITTSBURGH,15218,350,7529,921,"REMOVE PLASTER FROM 2113 HUDSON, 12X12 VINYL FLOOR TILE 2113 HUDSON UPSTAIARS BATHROOM AND 9X9 VINYL FLOOR TILE FROM 2115 HUDSON LIVING ROOM & 2ND FLOOR BEDROOM",6250,f,2019-06-06,2020-06-05,2,t,f,2020-06-05,DEMOLITION,40.427713,-79.879768
PAA194339,VACANT BUSINESS COMPLEX,552  CARNOT RD,CORAOPOLIS,15108,850,17582,931,REMOVE EXTERIOR SILVER METALLIC ROOFING MATERIAL,1500,f,2019-06-07,2020-06-07,2,t,f,2020-06-07,DEMOLITION,40.5161396,-80.2209065
PAA194340,VACANT BUISNESS COMPLEX,548 CARNOT RD,CORAOPOLIS,15108,200,17582,931,REMOVE WHITE 12X12 FLOOR TILE FROM SECOND FLOOR WINDOW CAULKING ON FIRST FLOOR LEFT SIDE OF THE BUILDING,200,f,2019-06-07,2020-06-07,2,t,f,2020-06-07,DEMOLITION,40.5156733,-80.2205634
PAA194358,VACANT RESIDENCE,512  LARIMER AVE,PITTSBURGH,15206,1850,7509,921,BUILDING IS UNSAFE ALL MATERIALS BEING TREATED AS ACM,10000,f,2019-07-08,2020-06-11,2,t,f,2020-06-11,DEMOLITION,40.4653529,-79.9140064
PAA194359,VACANT COMMERCIAL PROPERTY,522  LARIMER AVE,PITTSBURGH,15206,1250,7538,921,THE BUILDING IS WASTE.  ALL MATERIALS WILL BE DISPOSED OF AS NON-FRIABLE ACM WASTE,3000,f,2019-06-12,2020-06-11,2,t,f,2020-06-11,DEMOLITION,40.4655408,-79.9136075
PAA194417,"COLLISION REPAIR CENTER (PENNDOT SR48, A34 PROJECT)",,,15135,450,32707,944,REMOVE ORIGINAL TAR ROOF COATING FROM SUB-ROOF AND REAR WINDOW CAULKING,948,f,2019-07-05,2019-12-31,2,f,f,2019-12-31,DEMOLITION,40.3026486,-79.8240715
PAA194424,KOPPERS PLANT CLAIRTON PA (MAP AREA 30),300 N STATE ST,CLAIRTON,15025,850,1327,940,REMOVE EXTERIOR GALBESTOS ROOFING AND EXTERIOR WINDOW CAULKING FROM BUILDING #9,1625,f,2019-07-08,2019-11-30,2,f,f,2019-11-30,DEMOLITION,40.3080967,-79.884895
PAA194426,VACANT RESIDENCE,513  THOMPSON AVE,CLAIRTON,15025,350,1483,915,"REMOVE TRANSITE SIDING, KITCHEN AND DOOR ENTRYWAY FLOOR TILE",874,f,2019-07-14,2019-12-31,2,t,f,2019-12-31,DEMOLITION,40.2863612,-79.8867541
PAA194428,VACANT RESIDENCE,508  BEAVER ST,CLAIRTON,15025,350,1483,915,REMOVE OUTSIDE TRANSITE SIDING,1026,f,2019-07-14,2019-12-31,2,t,f,2019-12-31,DEMOLITION,40.2867918,-79.8867103
PAA194471,PIT AIR ROUTE SURVELLIANCE RADAR,101 SGT MESSERSCHMIDT RD,OAKDALE,15071,1850,13771,943,"REMOVE ROOFING & PIPE INSULATION THROUGHOUT BUILDING, DUCT INSULATION ON 1ST FLOOR,  AND FLOOR TILE AND MASTIC ON FIRST AND SECOND FLOORS IN BUILDING #16, WINDOW GLAZING, TRANSITE PANELS & TRANSITE PIPE THROUGHOUT BUILDING",30073,f,2019-07-29,2019-11-30,2,t,f,2019-11-30,DEMOLITION,40.3978959,-80.1585493
PAA194543,BETTIS ATOMIC POWER LAB WASTE PROCESSING BUILDING,814 PITTSBURGH MCKEESPORT BLVD,WEST MIFFLIN,15122,1250,2024705,906,SEE ATTACHED,4105,f,2019-11-25,2020-11-25,2,f,f,2020-11-25,DEMOLITION,40.3560891,-79.8997901
PAA194554,VACANT RESIDENCE,2235  WILSON AVE,PITTSBURGH,15214,350,4553,926,ALL MATERIAL IS TO BE TREATED AS ACM,1500,f,2019-07-30,2109-08-06,2,t,f,2109-08-06,DEMOLITION,40.4657385,-80.0131356
PAA194572,FORMER JEFFERSON HILLS MUNICIPAL BUILDING,3008  OLD CLAIRTON RD,JEFFERSON HILLS,15025,450,7870,921,"REMOVE 9""X9"" FLOOR TILE ON 1ST FLOOR UNDER 12"" TILES/CARPET",800,f,2019-08-21,2020-08-20,2,t,f,2020-08-20,DEMOLITION,40.294021,-79.91902
PAA194577,VACANT RESIDENCE,3005  JERSEY ST,MCKEESPORT,15132,350,19644,902,REMOVE ASBESTOS CONTAINING DEBRIS FROM THE ENTIRE BUILDING,2880,f,2019-08-23,2019-12-31,2,t,f,2019-12-31,DEMOLITION,40.3467931,-79.8414258
PAA194578,VACANT RESIDENTIAL,3007  JERSEY ST,MCKEESPORT,15132,350,19645,902,REMOVE ASABESTOS CONTAINING DEBRIS FROM ENTIRE BUILDING,2636,f,2019-08-23,2019-12-31,2,t,f,2019-12-31,DEMOLITION,40.3467776,-79.8412507
PAA194579,VACANT RESIDENCE,3011  JERSEY ST,MCKEESPORT,15132,350,19646,902,REMOVE ASABESTOS CONTAINING DEBRIS FROM ENTIRE BUILDING,3074,f,2019-08-23,2019-12-31,2,t,f,2019-12-31,DEMOLITION,40.3468054,-79.8411194
PAA194580,VACANT RESIDENCE,1607  COLFAX ST,MCKEESPORT,15132,350,19647,902,REMOVE ASABESTOS CONTAINING DEBRIS FROM ENTIRE BUILDING,2240,f,2019-08-23,2019-12-31,2,t,f,2019-12-31,DEMOLITION,40.3480067,-79.8544877
PAA194581,VACANT RESIDENCE,1724  WILLOW ST,MCKEESPORT,15132,350,19648,902,REMOVE ASABESTOS CONTAINING DEBRIS FROM ENTIRE BUILDING,4240,f,2019-08-23,2019-12-31,2,t,f,2019-12-31,DEMOLITION,40.3416298,-79.8530647
PAA194582,VACANT RESIDENCE,1726  WILLOW ST,MCKEESPORT,15132,350,19649,902,REMOVE ASABESTOS CONTAINING DEBRIS FROM ENTIRE BUILDING,2100,f,2019-08-23,2019-12-31,2,t,f,2019-12-31,DEMOLITION,40.341565,-79.8530654
PAA194583,VACANT RESIDENCE,1728  WILLOW ST,MCKEESPORT,15132,350,19650,902,REMOVE ASABESTOS CONTAINING DEBRIS FROM ENTIRE BUILDING,3456,f,2019-08-23,2019-12-31,2,t,f,2019-12-31,DEMOLITION,40.3415015,-79.8531353
PAA194612,VACANT RETAIL,326 E 4TH AVE,TARENTUM,15084,1550,19672,902,"REMOVE TARPAPER & ROOFING FROM ROOF, MASTIC DOTS FROM 2ND FL & UNDER EXT GLASS TILES, FLOOR TILE MASTIC, TAR PAPER LINOLEUM FROM 1ST FL, WINDOW CAULKING THROUGHOUT & BASEMENT TRANSITE BOILDER SHIELD AND BOILER PLATE BREACHING",4989,f,2019-09-06,2019-12-31,2,t,f,2019-12-31,DEMOLITION,40.6019433,-79.7526859
PAA194616,NIOSH BUILDING 14 - 626 COCHRANS MILL ROAD,,PITTSBURGH,15236,1250,010467,925,"RMOVE 12X12 FLOOR TILE/MASTIC IN ROOMS 201, 203, 204, 205, 206 & 209; 13"" COVE BASE/MASTIC IN ROOM 207 AND CEMENTITIOUS PIPE INSULATION",4682,f,2019-09-16,2019-11-30,2,f,f,2019-11-30,DEMOLITION,40.3380768,-79.9789606
PAA194619,NIOSH BUILDING 41 - 626 COCHRANS MILL ROAD,,PITTSBURGH,15236,450,010467,925,"REMOVE 12""x12"" FLOOR TILE/MASTIC IN ROOMS 101 & 102 AND MAIN ENTRANCE FOYER",754,f,2019-09-19,2019-11-18,2,f,f,2019-11-18,DEMOLITION,40.3380768,-79.9789606
PAA194660,VACANT COMMERCIAL BUILIDING,49  VERONA RD,PENN HILLS,15235,1250,19771,902,"RMEOVE SHEET FLOORING FROM LOBBY & TOP FLOOR KITCHEN, FLOOR TILE AND MASTIC FROM 1ST FLOOR RIGHT SIDE AND BATHROOM, TRANSITE SIDING FROMTOP FLOOR EXTERIOR AND FLAT ROOF FLASHING",2930,f,2019-10-01,2019-12-31,2,t,f,2019-12-31,F=D,40.4642154,-79.8648747
PAA194664,VACANT RESIDENCE,849  CRUCIBLE ST,PITTSBURGH,15220,350,9013,951,"REMOVE 9X9 GREEN & WHITE DINING ROOM FLOOR TILE & 9X9 RED FLOOR TILE IN BEDROOM #3, 9X9 GRAY FLOOR TILE IN BEDROOM #1, & BLUE & BEIGE FLOOR TILE IN BEDROOM #2",7580,f,2019-09-25,2019-11-18,2,t,f,2019-11-18,DEMOLITION,40.4427079,-80.0412344
PAA194668,VACANT RESIDENCE,628  RANDALL ST,WEST MIFFLIN,15122,450,6837,938,"REMOVE YELLOW/GOLD, BROWN & GRAY KITCHEN FLOOR TILE AND 2ND FLOOR BEDROOMS CHECKERED FLOOR TILE & MASTIC",815,f,2019-09-30,2020-09-30,2,f,f,2020-09-30,DEMOLITION,40.3477121,-79.9046864
PAA194670,VACANT RESIDENCE,1236  LUSCOMBE LN,DRAVOSBURG,15034,200,6837,938,REMOVE BROWN FLOOR TILE IN BASEMENT BATHROOM AND PIPE WRAP IN BASEMENT,280,f,2019-09-30,2020-09-30,2,f,f,2020-09-30,DEMOLITION,40.3536004,-79.8958082
PAA194671,VACANT RESIDENCE,579  RANDALL ST,WEST MIFFLIN,15122,200,6837,938,REMOVE BASEMENT HOT WATER TAN PIPE WRAP AND DINING ROOM GRAY FLOOR TILE,222,f,2019-09-30,2020-09-30,2,f,f,2020-09-30,DEMOLITION,40.3485275,-79.906346
PAA194672,VACANT RESIDENCE,602  RICHLAND AVE,DRAVOSBURG,15034,450,6837,938,REMOVE BATHROOM TAN VINYL SHEET FLOORING AND UPPER BEDROOMS WINDOW CAULKING,435,f,2019-09-30,2020-09-30,2,f,f,2020-09-30,DEMOLITION,40.3507159,-79.8954255
PAA194674,VACANT RESIDENCE,642  RANDALL ST,WEST MIFFLIN,15122,200,6837,938,"REMOVE 2ND BASEMENT PAPER DUCT WRAP, SECOND FLOOR BATHROOM PINK FLOORING, UNDERCOAT & BLACK WALL COATING AND ROOF CEMENT CHIMNEY FLUE & VENT TAR",230,f,2019-09-30,2020-09-30,2,f,f,2020-09-30,DEMOLITION,40.3471645,-79.9042928
PAA194675,VACANT RESIDENCE,614  BETTIS RD,WEST MIFFLIN,15122,450,6837,938,"REMOVE CHECKERED FLOOR TILE AND CEMENTITIOUS DUCT WRAP IN BASEMENT, ROOF FLASHING AND SILVER WINDOW CAULKING FROM BASEMENT",709,f,2019-09-30,2020-09-30,2,f,f,2020-09-30,DEMOLITION,40.359128,-79.8832984
PAA194679,VACANT RESIDENCE,575  BEATTY RD,MONROEVILLE,15146,1550,1350,941,REMOVE WALL/CEILING PLASTER AND EXTERIOR WINDOW GLAZING ON 1ST & 2ND FLOORS AND FLOOR TILE & MASTIC IN 2ND FLOOR BEDROOMS,7702,f,2019-10-08,2019-11-30,2,t,f,2019-11-30,DEMOLITION,40.4523531,-79.7548613
PAA194683,FORMER NORTHERN AUTO BODY,9235  PERRY HWY,PITTSBURGH,15237,1250,19795,902,REMOVE EXTERIOR GARAGE DOOR CAULKING & ROOFING,2602,f,2019-10-09,2019-12-31,2,t,f,2019-12-31,DEMOLITION,40.5744244,-80.0375337
PAA194695,GIANT EAGLE WAREHOUSE,90  36TH ST,PITTSBURGH,15201,1250,406567,929,SEE ATTACHED,3875,t,2019-10-16,2019-11-30,2,t,f,2019-11-30,DEMOLITION,40.466598,-79.9686226
PAA194707,,2311  LAWNDALE AVE,MCKEESPORT,15132,350,19858,902,REMOVE ASBESTOS CONTAINING DCEBRIS FROM ENTIER BUILDING,2808,f,2019-10-29,2019-12-31,2,f,f,2019-12-31,DEMOLITION,40.3491049,-79.8486729
PAA194708,,2910  STEWART ST,MCKEESPORT,15132,350,19859,902,ESTOS CONTAINING DEBRIS FROM ENTIRE BUILDING,2118,f,2019-10-29,2019-12-31,2,f,f,2019-12-31,DEMOLITION,40.3427803,-79.8430122
PAA194709,415-417 VANKIRK ALLEY,415  VAN KIRK ALY,MCKEESPORT,15132,350,19860,902,ESTOS CONTAINING DEBRIS FROM ENTIRE BUILDING,2808,f,2019-10-29,2019-12-31,2,f,f,2019-12-31,DEMOLITION,40.3451372,-79.8619927
PAA194710,,1133  WALNUT ST,MCKEESPORT,15132,350,19861,902,REMOVE ASBESTOS CONTAINING DEBRIS FROM ENTIRE BUILDING,3944,f,2019-10-29,2019-12-31,2,f,f,2019-12-31,DEMOLITION,40.3436915,-79.8631173
PAA194721,VACANT RESIDENCE,618  BETTIS RD,WEST MIFFLIN,15122,0,0,938,REMOVE YELLOW AND BROWN FLOOR TILE IN KITCHEN AND DUCT WRAP IN BASEMENT AND 4 RUNS OF DUCTWRAP IN BASEMENT & ON SECOND FLOOR,266,f,2019-09-30,2020-09-30,2,f,f,2020-09-30,DEMOLITION,40.359562,-79.8832984
PAA194722,VACANT RESIDENCE,612  EASTMAN ST,WEST MIFFLIN,15122,0,0,938,REMOVE BROWN AND GREEN FLOOR TILE/MASTIC FROM BASEMENT WASHROOM & MASTIC FROM BASEMENT,435,f,2019-09-30,2020-09-30,2,f,f,2020-09-30,DEMOLITION,40.3834613,-79.8774366
PAA194724,202/204 15TH STREET,202  15TH ST,PITTSBURGH,15215,450,360,916,REMOVE WINDOW CAULKING THROUGHOUT BUILDING AND FLOOR TILE FROM ROOM 204 ON THE FIRST FLOOR,650,f,2019-11-05,2020-11-01,2,f,f,2020-11-01,DEMOLITION,40.4953179,-79.9262735
PAA194734,NIOSH BUILDING 44 - 626 COCHRANS MILL ROAD,,PITTSBURGH,15236,1250,10713,925,REMOVE PIPE WRAP IN MEN'S AND WOMEN'S RESTROOMS AND FLOOR TILE AND MASTIC FROM ROOMS 100A THROUGH 109 AND ROOMS 117 THROUGH 120,3710,f,2019-11-18,2019-12-31,2,f,f,2019-12-31,RENOVATION,40.3380768,-79.9789606
UND180199,VERIZON,306  LARGE AVE,CLAIRTON,15025,0,0,928,REMOVE FLOOR TILE UNDER EQUIPMENT AND TSI PIPE INSULATION BY REAR DOOR IN BASEMENT,75,t,2018-11-28,2019-11-27,2,f,f,2019-11-27,RENOVATION,40.2939062,-79.8820517
UND180200,ST. MATTHEWS CHURCH - 156 SOUTH 19TH STREET,,PITTSBURGH,15203,0,0,921,REMOVE BOILER ROPE INSULATION IN BASEMENT,5,f,2018-11-28,2019-11-27,2,f,f,2019-11-27,RENOVATION,40.4293034,-79.9724245
UND180211,RESIDENCE,155 DARLINGTON LN,SEWICKLEY,15143,0,0,921,REMOVE DUCT INSULATION FROM BASEMENT,60,f,2018-12-20,2019-12-19,2,f,f,2019-12-19,RENOVATION,40.554234,-80.161192
UND190005,UPMC PRESBYTERIAN HOSPITAL,200 LOTHROP ST,PITTSBURGH,15213,0,,901,REMOVE AIRCEL PIPING IN THE CCU ON THE 10TH FLOOR,1,f,2019-01-11,2019-12-11,2,f,f,2019-12-11,RENOVATION,40.4425606,-79.9609827
UND190013,RESIDENCE,560  DORSEYVILLE RD,PITTSBURGH,15238,0,,921,REMOVE EXTERIOR BOILER INSULATION IN BASEMENT,80,f,2019-02-07,2020-02-06,2,f,f,2020-02-06,RENOVATION,40.531848,-79.9138699
UND190018,2528 SMALLMAN STREET,,PITTSBURGH,15222,0,,905,REMOVE WINDOW GLAZING FROM TWO WINDOWS IN ALLEY,2,f,2019-02-14,2019-12-31,2,f,f,2019-12-31,RENOVATION,40.4475255,-79.9933976
UND190105,VACANT COMMERCIAL PROPERTY,3700  BUTLER ST,PITTSBURGH,15201,0,0,910,REMOVE GRAY TAR ON ROOF,90,f,2019-06-03,2020-06-02,2,f,f,2020-06-02,RENOVATION,40.4662502,-79.9644501
UND190163,RESIDENCE,1121  MORRISON ST,PITTSBURGH,15212,0,0,931,REMOVE EXTERIOR FRONT WINDOW CAULKING,120,f,2019-08-23,2020-08-23,2,f,f,2020-08-23,RENOVATION,40.4597803,-80.0236602
UND190164,RESIDENCE,1002  KIRKBRIDE ST,PITTSBURGH,15212,0,0,931,REMOVE FRONT EXTERIOR WINDOW & DOOR FRAME CAULKING,130,f,2019-08-23,2020-08-23,2,f,f,2020-08-23,RENOVATION,40.4597014,-80.0217918
UND190171,1009/1011 MORRISON STREET,1009  MORRISON ST,PITTSBURGH,15212,0,0,931,"REMOVE ROOF CAULKING ALONE 2 CHIMNEYS, REAR FAÇADE STONE & REAR HISTORIC DOWNSPOUT",25,f,2019-08-23,2020-08-23,2,f,f,2020-08-23,RENOVATION,40.460123,-80.0221002
UND190190,HUNTINGTON BANK OFFICE 4TH FLOOR GRANT BUILDING,310  GRANT ST,PITTSBURGH,15219,0,0,905,REMOVE PIPE INSULATION IN 4TH FLOOR WOMEN'S ROOM CEILING,30,t,2019-09-10,2019-12-31,8,f,f,2019-12-31,RENOVATION,40.4376887,-79.9976353
UND190191,STEPPING STONES CHILDREN'S CENTER,712 WARRENDALE RD,RICHLAND,15044,0,0,902,REMOVE HALLWAY PIPE INSULATION,6,t,2019-09-16,2019-11-22,8,f,f,2019-11-22,RENOVATION,40.6585979,-80.0120549
UND190200,ALLEGHENY CENTER ALLIANCE CHURCH,250 E OHIO ST,PITTSBURGH,15212,0,0,902,"REMOVE TANK, PIPE & FITTING INSULATION IN BOILER ROOM",82,t,2019-09-26,2019-11-29,2,f,f,2019-11-29,RENOVATION,40.4533665,-80.0030653
UND190201,KETTLER HALL - 9000 BABCOCK BOULEVARD,,HAMPTON,15101,0,0,902,REMOVE BOULER GASKET FROM BOILER ROOM,80,t,2019-10-04,2019-12-31,2,f,f,2019-12-31,RENOVATION,40.5913143,-79.9475287
UND190203,THE CHILDREN'S INSTITUTE,1405  SHADY AVE,PITTSBURGH,15217,0,0,902,REMOVE ROOF FLASHING,100,t,2019-10-01,2019-12-31,2,f,f,2019-12-31,RENOVATION,40.4435198,-79.9195228
UND190205,PLANNED PARENTHOOD OF WESTERN PA,933  LIBERTY AVE,PITTSBURGH,15222,0,0,905,REMOVE FLOOR TILE IN FIRST FLOOR MEN'S ROOM,60,t,2019-10-04,2019-12-31,2,f,f,2019-12-31,RENOVATION,40.4434702,-79.9968271
UND190208,RESIDENTIAL PROJECT,1526  BRIGHTON RD,PITTSBURGH,15212,0,0,931,REMOVE 2ND FLOOR BATHROOM SHEET FLOORING,50,f,2019-08-23,2020-08-23,2,f,f,2020-08-23,RENOVATION,40.4576537,-80.0156571
UND190214,WALDEN ADULT DAYCARE,1225 LEWIS AVE,CORAOPOLIS,15108,0,0,902,REMOVE PIPE INSULATION IN CRAWLSPACE,130,t,2019-10-18,2019-12-31,2,f,f,2019-12-31,RENOVATION,40.5047261,-80.1424658
UND190215,CARLOW UNIVERSITY - ST JOSEPH HALL,3333  5TH AVE,PITTSBURGH,15213,0,0,903,REMOVE WINDOW GLAZING 3 LEVELS VARIOUS BROKEN WINDOWS TO BE REPLACED,86,t,2019-10-22,2019-12-30,2,f,f,2019-12-30,RENOVATION,40.4389338,-79.9631161
UND190217,RESIDENCE,19  HIGH ST,ETNA,15223,0,0,902,REMOVE BOILER & PIPE INSULATION FROM BASEMENT,35,t,2019-10-14,2019-12-31,2,f,f,2019-12-31,RENOVATION,40.497627,-79.9449929
UND190219,RESIDENCE,5272  ADOBE DR,PITTSBURGH,15236,0,0,902,REMOVE FLOOR TILE AND MASTIC FROM BASEMENT FAMILY/BAR ROOM,480,t,2019-10-21,2019-12-31,2,f,f,2019-12-31,RENOVATION,40.3401874,-79.9883077
UND190221,RESIDENCE,5746  AYLESBORO AVE,PITTSBURGH,15217,0,0,902,REMOVE TAYLOR BURNERS IN VARIOUS ROOMS THROUGHOUT BUILDING,36,t,2019-10-21,2019-12-31,2,f,f,2019-12-31,RENOVATION,40.4394854,-79.9235115
UND190222,VACANT COMMERCIAL BUILDING,3536  BUTLER ST,PITTSBURGH,15201,0,0,902,REMOVE ROOF TAR FROM PARAPET WALL CAPS AND SEAMS,15,f,2019-11-01,2019-12-31,2,f,f,2019-12-31,RENOVATION,40.464891,-79.965315
UND190223,MEDIC TEN,2800 SHADELAND AVE,PITTSBURGH,15212,0,0,911,REMOVE ROOF FLASHING,153,t,2019-11-04,2019-11-30,2,f,f,2019-11-30,RENOVATION,40.4699218,-80.0301175
UND190224,RESIDENCE,5710  ELGIN ST,PITTSBURGH,15206,0,0,902,REMOVE THIRD FLOOR FLOOR TILE,882,t,2019-11-01,2019-12-31,2,f,f,2019-12-31,RENOVATION,40.4768557,-79.9209358
UND190225,RESIDENCE - 52 HAWTHORNE AVENUE,,PITTSBURGH,15206,0,0,902,REMOVE BASEMENT DUCT TAPE,100,t,2019-10-28,2019-12-31,2,f,f,2019-12-31,RENOVATION,40.4720642,-79.9136731
UND190226,VACANT WAREHOUSE,2400 SMALLMAN ST,PITTSBURGH,15222,0,0,931,REMOVE 2ND FLOOR STAIRWELL FLOOR TILE & MASTIC,80,f,2019-11-06,2020-01-17,2,f,f,2020-01-17,RENOVATION,40.4540188,-79.9812264
UND190228,RESIDENCE,601  WEST DR,SEWICKLEY,15143,0,0,902,REMOVE DUCT WRAP IN TWO FUTURE 2ND FLOOR BATHROOM AREAS,20,t,2019-11-06,2019-12-31,2,f,f,2019-12-31,RENOVATION,40.548448,-80.1871796
